id,address,translated_address,latitude,longitude
767860,"г Казань, ул Адоратского 4А","Adoratskogo Street, 4А",55.824971,49.148743
767889,"г Казань, ул Чистопольская 85А","Chistopolskaya Street, 85А",55.823656,49.155139
767895,"г Казань, ул Восстания 87","ulitsa Vosstaniya, 87",55.832439,49.061022
767898,"г Казань, ул Односторонняя Парковая 7 ч/дом","Odnostoronnyaya Parkovaya ulitsa, 7",55.821173,48.917184
767912,"г Казань, пр-кт Победы 70","Pobedy Avenue, 70",55.751386,49.218515
767930,"г Казань, ул Хайдара Бигичева 17","ulitsa Khaydara Bigicheva, 17",55.788034,49.224138
767932,"г Казань, ул Восстания 16","ulitsa Vosstaniya, 16",55.835604,49.094601
768095,"г Казань, ул Короленко 40","Korolenko Street, 40",55.837859,49.102569
768113,"г Казань, ул Сеченова 7","ulitsa Sechenova, 7",55.797463,49.173833
768152,"г Казань, ул Чистопольская 61 А","Chistopolskaya Street, 61А",55.819934,49.132537
768165,"г Казань, ул Бондаренко 27","Bondarenko Street, 27",55.822134,49.103045
768185,"г Казань, ул Беломорская 108 Ж ч.д.","Belomorskaya Street, 108Ж",55.866298,49.051958
768199,"г Казань, ул Тунакова 66","ulitsa Tunakova, 66",55.836074,49.084558
768200,"г Казань, ул Красной Позиции 3","ulitsa Krasnoy Pozitsii, 3",55.791992,49.167598
768320,"г Казань, ул Даурская ",Daurskaya ulitsa,55.763143,49.163475
768445,"г Казань, ул Меридианная 15А","Meridiannaya Street, 15А",55.825224,49.115316
768468,"г Казань, ул Комиссара Габишева 10","ulitsa Komissara Gabisheva, 10",55.739635,49.228064
768506,"г Казань, ул Кленовая 3-я 23 А ","3-ya Klenovaya ulitsa, 23А",55.872541,49.239212
768811,"г Казань, ул Академика Глушко ",Akademika Glushko Street,55.786202,49.23172
769351,"г Казань, ул Юлиуса Фучика 49","ulitsa Yuliusa Fuchika, 49",55.74487,49.201761
769393,"г Казань, ул Кул Гали 1","ulitsa Kul Gali, 1",55.755414,49.223429
769396,"г Казань, ул Меридианная 10","Meridiannaya Street, 10",55.820678,49.1174
769405,"г Казань, ул Аметьевская 72","Ametyevskaya Street, 70",55.769089,49.159136
769436,"г Казань, ул Шигабутдина Марджани ",Shigabutdina Mardzhani Street,55.775054,49.121066
769437,"г Казань, пр-кт Победы ",Pobedy Avenue,55.771783,49.218937
769452,"г Казань, пр-кт Ямашева 57А","Yamasheva Avenue, 57А",55.826291,49.126743
769455,"г Казань, ул Степана Халтурина 8","ulitsa Stepana Khalturina, 8/20",55.815605,49.058947
769493,"г Казань, пр-кт Ибрагимова 40","Ibragimova Avenue, 40/24",55.827434,49.09258
769504,"г Казань, пр-кт Ямашева 115А","Yamasheva Avenue, 115А",55.820936,49.162199
769521,"г Казань, ул Маршала Чуйкова 19","ulitsa Marshala Chuykova, 19",55.836312,49.116511
769551,"г Казань, ул Красной Позиции 41","ulitsa Krasnoy Pozitsii, 41",55.778821,49.169036
769553,"г Казань, ул Кулахметова 19","ulitsa Kulakhmetova, 19",55.828076,49.057025
769607,"г Казань, ул Дмитрия Менделеева 17","ulitsa Dmitriya Mendeleyeva, 17Ак2",55.760636,49.247521
769616,"г Казань, ул Сыртлановой 1","ulitsa Syrtlanovoy, 1",55.753063,49.191422
769625,"г Казань, ул Короленко 50","Korolenko Street, 50",55.839572,49.101392
769626,"г Казань, ул Белинского 25","Belinskiy Street, 25",55.853435,49.069179
769630,"г Казань, ул Гаврилова 56","Gavrilova Street, 56А",55.841705,49.158921
769634,"г Казань, ул Николая Ершова 29","Nikolay Ershov Street, 29",55.794067,49.169098
769645,"г Казань, ул Юлиуса Фучика 72","ulitsa Yuliusa Fuchika, 72",55.755844,49.232358
769659,"г Казань, ул Побежимова 47","ulitsa Pobezhimova, 47",55.859701,49.078701
769664,"г Казань, ул Николая Ершова 65","Nikolay Ershov Street, 65",55.802239,49.182097
769686,"Казань, Гумера Гали 39","ulitsa Gumera Gali, 37",55.692643,49.138484
769777,"г Казань, пр-кт Ямашева 48","Yamasheva Avenue, 48",55.828743,49.124246
769786,"г Казань, ул Декабристов 96","Dekabristov Street, 96",55.821305,49.090541
769801,"г Казань, ул 25 Октября 6","ulitsa 25 Oktyabrya, 6",55.815418,49.063528
769809,"г Казань, пр-кт Ямашева 37","Yamasheva Avenue, 37",55.826276,49.111049
769818,"г Казань, ул Большая 108","Bolshaya Street, 108",55.79678,49.048769
769820,"г Казань, ул Академика Губкина 37","Akademika Gubkina Street, 37",55.809439,49.197809
769831,"г Казань, ул Декабристов 180Б","Dekabristov Street, 180Б",55.840573,49.084989
769853,"г Казань, ул Островского 104","Ostrovskogo Street, 104",55.779337,49.133426
769865,"г Казань, ул Музыкальная 13","Muzykalnaya ulitsa, 13",55.818726,49.049856
769943,"г Казань, ул Юлиуса Фучика 104","ulitsa Yuliusa Fuchika, 104",55.770046,49.234541
770040,"г Казань, тракт Сибирский 6","Sibirskiy trakt, 6",55.804582,49.185259
770120,"г Казань, ул Кул Гали 9 А","ulitsa Kul Gali, 9А",55.751437,49.230965
770206,"г Казань, ул Приволжская (Аракчино) 67","Privolzhskaya ulitsa, 67",55.810289,48.912028
770285,"г Казань, ул Плужная 24А","Pluzhnaya ulitsa, 23",55.859003,48.869591
770299,"г Казань, ул Чистопольская 43","Chistopolskaya Street, 43",55.819843,49.12474
770354,"г Казань, тракт Сибирский 34","Sibirskiy trakt, 34",55.815752,49.182744
770733,"г Казань, ул Островского 57 А","Ostrovskogo Street, 57А",55.784602,49.123994
770820,"г Казань, ул Николая Ершова 1 А","Nikolay Ershov Street, 1А",55.7939,49.149506
770929,"г Казань, ул Баумана 13","Baumana Street, 13",55.791992,49.112837
771081,"г Казань, ул Дубравная 23","Dubravnaya ulitsa, 23",55.739291,49.213502
771097,"г Казань, ул Кулахметова 23 А ","ulitsa Kulakhmetova, 23А",55.828976,49.058372
771119,"г Казань, пр-кт Ямашева 83","Yamasheva Avenue, 83",55.826114,49.142634
771122,"г Казань, ул Маршала Чуйкова 1","ulitsa Marshala Chuykova, 1",55.836312,49.103566
771135,"г Казань, ул Прогонная 19","Progonnaya ulitsa, 19",55.738612,49.095931
771160,"г Казань, ул Олега Кошевого 2","ulitsa Olega Koshevogo, 2",55.854547,49.088511
771242,"г Казань, ул Затлы 24","ulitsa Zatly, 24",55.737856,49.195518
771331,"г Казань, ул Зеленая 18","Zelyonaya ulitsa, 18",55.808371,49.253127
771460,"г Казань, тракт Сибирский 29","Sibirskiy trakt, 29к3",55.812514,49.173177
771600,"г Казань, ул Химиков 63","ulitsa Khimikov, 63",55.878814,49.017714
771636,"г Казань, ул Баумана 80","Baumana Street, 80/7",55.787892,49.119979
771648,"г Казань, ул Тунакова 43","ulitsa Tunakova, 43",55.831625,49.085366
771756,"г Казань, ул Максимова ",ulitsa Maksimova,55.862772,49.08171
771810,"г Казань, ул Абсалямова 13","Absalyamova Street, 13",55.817648,49.10954
771817,"г Казань, ул Ноксинский Спуск 43","ulitsa Noksinskiy Spusk, 43",55.769342,49.24338
771840,"г Казань, ул Ударная 9 или 11","Udarnaya ulitsa, 9",55.875647,49.095158
771923,"г Казань, ул Оренбургский тракт 5 Б","Orenburgskiy trakt, 5Б",55.761406,49.156217
771932,"г Казань, ул Фрунзе ",ulitsa Frunze,55.821644,49.050512
771968,"г Казань, пр-кт Ибрагимова 73","Ibragimova Avenue, 73",55.823682,49.098679
772180,"г Казань, ул Ново-Слободская 16","Novoslobodskaya Street, 16",55.802118,49.034648
772405,"г Казань, ул Хади Такташа 123","Khadi Taktasha Street, 123",55.766734,49.135528
772692,"г Казань, пер Односторонки Гривки 1","pereulok Odnostoronki Grivki, 3",55.811599,49.090658
772709,"г Казань, ул Островского 86","Ostrovskogo Street, 86",55.781231,49.129716
772741,"г Казань, ул Кул Гали 11/52А","ulitsa Kul Gali, 11/52А",55.751133,49.232636
772744,"г Казань, ул Юлиуса Фучика 14","ulitsa Yuliusa Fuchika, 14",55.742559,49.211894
772763,"г Казань, пр-кт Ибрагимова 47","Ibragimova Avenue, 47",55.830078,49.093802
772767,"г Казань, ул Черноморская 5","Chernomorskaya ulitsa, 5",55.820556,49.100701
772786,"г Казань, ул Юлдаш 4","ulitsa Yuldash, 4",55.863869,48.863123
772834,"г Казань, ул Карбышева ",ulitsa Karbysheva,55.755895,49.179402
772837,"г Казань, ул Ломжинская 15","Lomzhinskaya Street, 15",55.768603,49.227678
772918,"г Казань, ул Журналистов 13","Zhurnalistov Street, 13",55.80999,49.188933
772951,"г Казань, ул Рашида Вагапова 3","ulitsa Rashida Vagapova, 3",55.783549,49.227291
772971,"г Казань, ул Центральная 2-я (Салмачи) 118Б  ч/с","2-ya Tsentralnaya ulitsa, 118Б",55.743578,49.28508
772974,"г Казань, ул Пермская 1-я 28","1-ya Permskaya ulitsa, 28",55.878218,49.032644
773001,"г Казань, ул Академика Глушко 39","Akademika Glushko Street, 39",55.787508,49.227875
773008,"г Казань, пр-кт Ямашева 92А","Yamasheva Avenue, 92А",55.827661,49.148473
773013,"г Казань, ул Кызыл Армейская 4","Kyzyl Armeyskaya Street, 4",55.802594,49.060474
773017,"г Казань, пр-кт Победы 132","Pobedy Avenue, 132",55.779008,49.22474
773033,"г Казань, ул Восстания 24","ulitsa Vosstaniya, 24",55.835756,49.091035
773040,"г Казань, ул Халезова 16","ulitsa Khalezova, 16",55.866748,49.221057
773052,"г Казань, ул Вишневского 14","Vishnevskiy Street, 14",55.784486,49.149344
773071,"г Казань, ул Бестужева 53  ч/д","ulitsa Bestuzheva, 53",55.876632,49.034037
773076,"г Казань, ул Серова 29","Serova Street, 29",55.826751,49.06669
773099,"г Казань, ул Дубравная 33","Dubravnaya ulitsa, 33к1",55.739169,49.208409
773143,"г Казань, ул Максимова 1","ulitsa Maksimova, 1",55.859817,49.097997
773178,"г Казань, ул Белинского 12","Belinskiy Street, 12/8",55.854355,49.076177
773182,"г Казань, ул Шоссейная (Борисоглебское) 2Е","Shosseynaya ulitsa, 2Д",55.878364,49.101725
773198,"г Казань, ул Лядова 10","ulitsa Lyadova, 10",55.85342,49.077785
773202,"г Казань, ул Академика Завойского 18","Akademika Zavoyskogo Street, 18",55.756027,49.235924
773243,"г Казань, ул Адоратского 41","Adoratskogo Street, 41",55.840159,49.142733
773285,"г Казань, ул Адоратского 51","Adoratskogo Street, 51",55.842671,49.141799
773326,"г Казань, ул Абсалямова 16","Absalyamova Street, 16",55.820501,49.11122
773434,"г Казань, ул Хади Такташа ",Khadi Taktasha Street,55.768228,49.133516
773447,"г Казань, ул Вересаева напротив 26","ulitsa Veresayeva, 26",55.874774,49.088439
773465,"г Казань, ул Баумана 70","Baumana Street, 70",55.789082,49.117355
773466,"г Казань, городок Военный 33 2","Voyenny gorodok-32, 33",55.80694,48.961902
773471,"г Казань, ул Беломорская 73","Belomorskaya Street, 73",55.866344,49.018783
773484,"г Казань, ул Серова 6Б","Serova Street, 6Б",55.826847,49.063133
773529,"г Казань, ул Восстания 123А","ulitsa Vosstaniya, 123А",55.830058,49.051374
773606,"г Казань, ул Глазунова 8","ulitsa Glazunova, 8",55.735682,49.148518
773632,"г Казань, ул Дмитрия Менделеева 18А","ulitsa Dmitriya Mendeleyeva, 18А",55.76017,49.247908
773652,"г Казань, пр-кт Победы 30","Pobedy Avenue, 30",55.742468,49.198994
773669,"г Казань, ул Дорожная (Нагорный) 54Б","Dorozhnaya ulitsa, 54Б",55.84862,49.223914
773702,"г Казань, ул Главная 56","Glavnaya ulitsa, 56",55.865238,49.22395
773786,"г Казань, ул Братьев Касимовых 44","Bratyev Kasimovykh Street, 44",55.755945,49.204366
773846,"г Казань, ул Академика Павлова 9","Akademika Pavlova Street, 9",55.863475,49.102722
773966,"г Казань, ул Революционная 69","Revolyutsionnaya ulitsa, 69",55.818629,48.905694
773989,"г Казань, ул Октябрьская (Большие Клыки) 2","Oktyabrskaya ulitsa, 2",55.788454,49.245635
773996,"г Казань, ул Даурская 24А","Daurskaya ulitsa, 24А",55.763214,49.166188
774085,"г Казань, ул Шатурская 220","Shaturskaya ulitsa, 220/21",55.868753,49.034603
774141,"г Казань, ул Гвардейская 61","Gvardeyskaya ulitsa, 61",55.769504,49.17871
774143,"г Казань, ул Академика Королева 22","Akademika Korolyova Street, 22",55.839163,49.075566
774305,"г Казань, ул Чистопольская 75","Chistopolskaya Street, 75",55.820349,49.149641
774317,"г Казань, ул Поперечно-Ноксинская 33","Poperechno-Noksinskaya ulitsa, 33",55.846133,49.196677
774367,"г Казань, ул Батыршина 23","Batyrshina Street, 23",55.823727,49.059172
774368,"г Казань, ул Маршала Чуйкова 29Б","ulitsa Marshala Chuykova, 29Б",55.838642,49.126033
774395,"г Казань, ул Воровского 11","ulitsa Vorovskogo, 11",55.842448,49.090693
774416,"г Казань, ул Меридианная 3","Meridiannaya Street, 3",55.81776,49.114732
774564,"г Казань, ул Журналистов 24","Zhurnalistov Street, 24",55.811219,49.189409
774629,"г Казань, ул Солнечная 4","Solnechnaya ulitsa, 4",55.710874,49.182259
774637,"г Казань, ул Муромская 1-я 33 а ","1-ya Muromskaya ulitsa, 33А",55.86946,49.02632
774659,"г Казань, ул Гагарина (Борисоглебское) 8","ulitsa Gagarina, 8",55.839567,49.097431
774708,"г Казань, ул Залесная 2","Zalesnaya ulitsa, 2",55.84726,48.906638
774712,"г Казань, ул Южно-Промышленная 1","Yuzhno-Promyshlennaya ulitsa, 1",55.73107,49.093173
774747,"г Казань, ул Хайдара Бигичева 9","ulitsa Khaydara Bigicheva, 9",55.785058,49.222413
774773,"г Казань, ул Шамиля Усманова 20","ulitsa Shamilya Usmanova, 20",55.830103,49.072107
774778,"г Казань, ул Сафиуллина 17 А","Safiullina Street, 17А",55.748285,49.231037
774787,"г Казань, ул Сабан 1","ulitsa Saban, 1",55.827353,49.050584
774790,"г Казань, ул Николая Ершова 57","Nikolay Ershov Street, 57",55.800018,49.179519
774797,"г Казань, ул Челюскина 38","ulitsa Chelyuskina, 38",55.864035,49.078836
774802,"г Казань, ул Мазита Гафури 50","Mazita Gafuri Street, 50",55.76723,49.104222
774816,"г Казань, ул Маршала Чуйкова 36","ulitsa Marshala Chuykova, 36",55.834977,49.127138
774837,"г Казань, ул Гудованцева 15","ulitsa Gudovantseva, 15",55.864252,49.019295
774855,"г Казань, ул Азинская 2-я 3","2nd Azinskaya Street, 3",55.805058,49.204528
774921,"г Казань, тер Лебяжье озеро ",territoriya Ozero Lebyazhye,55.839143,48.972987
774939,"г Казань, ул Гарифа Ахунова 22","ulitsa Garifa Akhunova, 22",55.728875,49.173779
774982,"г Казань, ул Гвардейская 52 В","Gvardeyskaya ulitsa, 52В",55.773677,49.174614
775027,"г Казань, ул Шмидта ",Leytenanta Shmidta Street,55.789421,49.154393
775066,"г Казань, ул Шмидта 34/18","Leytenanta Shmidta Street, 34",55.789127,49.155004
775097,"г Казань, ул Восстания 5","ulitsa Vosstaniya, 5",55.835184,49.099443
775136,"г Казань, пр-кт Фатыха Амирхана 3","Fatykha Amirkhana Street, 3",55.817658,49.130174
775256,"г Казань, ул Сибгата Хакима 43","Sibgata Khakima Street, 43",55.817355,49.139472
775290,"г Казань, пр-кт Ямашева 54","Yamasheva Avenue, 54к1",55.827742,49.125494
775375,"г Казань, ул Академика Губкина 17","Akademika Gubkina Street, 17",55.806616,49.192491
775462,"г Казань, ул Химиков 41","ulitsa Khimikov, 41",55.87144,49.017068
775597,"г Казань, ул Восстания 129","ulitsa Vosstaniya, 129",55.830129,49.048419
775760,"г Казань, ул Оренбургский тракт 142","Orenburgskiy trakt, 142",55.7282,49.184145
776092,"г Казань, ул Мира ",ulitsa Mira,55.798212,49.267096
776149,"г Казань, ул Николая Ершова 57Б","Nikolay Ershov Street, 57Б",55.800053,49.175818
776177,"г Казань, ул Комиссара Габишева 11","ulitsa Komissara Gabisheva, 11",55.746502,49.234307
776189,"г Казань, с Константиновка, ул Солнечная 27","Solnechnaya ulitsa, 27",55.814725,49.277687
776202,"г Казань, ул Декабристов 129","Dekabristov Street, 129",55.826756,49.083426
776208,"г Казань, ул Чулпан (Кульсеитово) 61/37",ulitsa Chulpan,55.89925,49.228558
776279,"г Казань, ул Побежимова ",ulitsa Pobezhimova,55.860464,49.076401
776280,"г Казань, ул 1 Мая 5","ulitsa 1 Maya, 5",55.812211,49.064382
776310,"г Казань, ул Академика Сахарова 29","Akademika Sakharova Street, 29",55.781671,49.224174
776335,"г Казань, ул Богатырева 13","ulitsa Bogatyryova, 13",55.815671,49.048428
776352,"г Казань, ул Беломорская 77","Belomorskaya Street, 77",55.866288,49.018083
776363,"г Казань, ул Космонавтов 35","ulitsa Kosmonavtov, 35",55.799421,49.191017
776376,"г Казань, ул Гвардейская ",Gvardeyskaya ulitsa,55.778203,49.173464
776458,"г Казань, ул Новая (Кадышево) 10/1","Novaya ulitsa, 10/1",55.902091,49.134666
776526,"г Казань, тер Деревня Универсиады 1","territoriya Derevnya Universiady, 1",55.744292,49.188448
776528,"г Казань, ул Халезова 13","ulitsa Khalezova, 13",55.866697,49.221937
776561,"г Казань, ул Декабристов 131","Dekabristov Street, 131",55.827419,49.080947
776842,"г Казань, ул Кул Гали 1","ulitsa Kul Gali, 1",55.755414,49.223429
776932,"г Казань, ул Портовая 2","Portovaya Street, 2",55.771403,49.095131
777591,"г Казань, ул Лесная (Новая Сосновка) 17 а","Lesnaya ulitsa, 17А",55.835457,49.235978
777627,"г Казань, ул Мира 18","ulitsa Mira, 18",55.797012,49.25513
777702,"г Казань, пр-кт Ямашева 83","Yamasheva Avenue, 83",55.826114,49.142634
777710,"г Казань, ул Побежимова 55","ulitsa Pobezhimova, 55",55.860261,49.074964
777712,"г Казань, пр-кт Альберта Камалеева 8","prospekt Alberta Kamaleyeva, 8",55.791015,49.183121
777717,"г Казань, ул Калининградская 1-я 8","1-ya Kaliningradskaya ulitsa, 8",55.750732,49.179321
777747,"г Казань, ул Юлиуса Фучика 34","ulitsa Yuliusa Fuchika, 34",55.745701,49.21953
777865,"г Казань, ул Гвардейская ",Gvardeyskaya ulitsa,55.778203,49.173464
777887,"г Казань, ул Оренбургский тракт 203","Orenburgskiy trakt, 203А",55.734694,49.183076
777913,"г Казань, ул Альметьевская 21","Almetyevskaya Street, 21",55.846381,49.208939
777922,"г Казань, ул Шамиля Усманова 33","ulitsa Shamilya Usmanova, 33",55.831418,49.063717
777959,"г Казань, ул Авангардная 145","Avangardnaya Street, 145",55.741718,49.145724
777971,"г Казань, ул Шумная 9А","Shumnaya ulitsa, 7",55.86062,48.868989
777986,"г Казань, ул Голубятникова 22","ulitsa Golubyatnikova, 22",55.837813,49.115298
777999,"г Казань, ул Восстания 123","ulitsa Vosstaniya, 123",55.830417,49.050153
778002,"г Казань, ул Мусина 29","Musina Street, 29",55.825709,49.119997
778030,"г Казань, ул Светлая 19","Svetlaya ulitsa, 19",55.822847,49.042229
778151,"г Казань, ул Большая Красная 3","Bolshaya Krasnaya Street, 3",55.799011,49.112406
778312,"г Казань, ул Чернышевского 10/6","Chernyshevskogo Street, 10/7",55.793146,49.110331
778373,"г Казань, ул Юлиуса Фучика 141","ulitsa Yuliusa Fuchika, 141",55.769545,49.229977
778391,"г Казань, ул Виталия Синицина 11А","ulitsa Vitaliya Sinitsyna, 11А",55.702612,49.140604
778416,"г Казань, ул Абсалямова 28","Absalyamova Street, 28",55.821709,49.111265
778589,"г Казань, ул Рощинская 42","Roshchinskaya ulitsa, 42",55.694951,49.140218
778669,"г Казань, ул Азинская 2-я 3А","2nd Azinskaya Street, 3А",55.805305,49.203046
778745,"г Казань, ул Спартаковская 125","Spartakovskaya Street, 125",55.771636,49.147242
778757,"г Казань, ул Революционная 27","Revolyutsionnaya ulitsa, 27",55.818599,48.88692
778807,"г Казань, ул Заречная 10","Zarechnaya Street, 10",55.800676,49.035896
778932,"г Казань, ул Белинского 25","Belinskiy Street, 25",55.853435,49.069179
779049,"г Казань, ул Вишневского 3","Vishnevskiy Street, 3",55.791496,49.153225
779172,"г Казань, ул Академика Глушко 22","Akademika Glushko Street, 22",55.785807,49.233058
779176,"г Казань, ул Дубравная 43А","Dubravnaya ulitsa, 43А",55.738769,49.202022
779190,"г Казань, ул Голубятникова 19А","ulitsa Golubyatnikova, 19А",55.838951,49.106037
779278,"г Казань, ул Ползунова 5","ulitsa Polzunova, 5",55.810071,49.082249
779279,"г Казань, ул Юлиуса Фучика 14В","ulitsa Yuliusa Fuchika, 14В",55.741541,49.206082
779288,"г Казань, ул Белинского ",Belinskiy Street,55.854067,49.076186
779320,"г Казань, пр-кт Фатыха Амирхана 53Б","Fatykha Amirkhana Street, 53Б",55.831433,49.127183
779346,"г Казань, ул Советская 27","Sovetskaya ulitsa, 27",55.815155,49.265955
779355,"г Казань, пр-кт Универсиады ",Universiady Avenue,55.767119,49.15751
779387,"г Казань, ул Клары Цеткин 9","Klary Tsetkin Street, 9",55.798677,49.061929
779399,"г Казань, ул Ноксинский Спуск 27","ulitsa Noksinskiy Spusk, 27",55.77072,49.239248
779413,"г Казань, ул Октябрьская 46","Oktyabrskaya ulitsa, 46",55.842529,49.093577
779414,"г Казань, пр-кт Победы ",Pobedy Avenue,55.771783,49.218937
779481,"г Казань, пр-кт Ямашева 94","Yamasheva Avenue, 94",55.827965,49.15053
779491,"г Казань, ул Центральная (Отары) 16","Tsentralnaya ulitsa, 16",55.743781,49.266063
779548,"г Казань, ул Московская 2","Moskovskaya Street, 2",55.792473,49.101473
779715,"г Казань, ул Маршальская 25А","Marshalskaya ulitsa, 25А",55.768157,49.165388
779735,"г Казань, ул Каюма Насыри 25","Kayuma Nasyri Street, 25",55.778497,49.118847
779851,"г Казань, ул Адоратского 51","Adoratskogo Street, 51",55.842671,49.141799
780988,"г Казань, пр-кт Победы  57 В","Pobedy Avenue, 57В",55.776148,49.209891
781006,"г Казань, ул Право-Булачная 21","Pravo-Bulachnaya Street, 21",55.792351,49.108274
781015,"г Казань, ул Ново-Светлая 16","Novo-Svetlaya ulitsa, 16",55.823368,49.040433
781039,"г Казань, ул Айдарова 7","Aydarova Street, 7",55.867187,49.091511
781113,"г Казань, ул Газовая 17","Gazovaya ulitsa, 17",55.770284,49.14788
781128,"г Казань, пр-кт Победы 50 А ","Pobedy Avenue, 50А",55.748919,49.207573
781158,"г Казань, ул Восход 3 А","Voskhod Street, 3А",55.827039,49.068909
781160,"г Казань, ул Братьев Касимовых 82","Bratyev Kasimovykh Street, 82",55.756726,49.213844
781554,"г Казань, ул Сары Садыковой 30","Sary Sadykovoy Street, 30",55.773975,49.116071
781563,"г Казань, пр-кт Победы 19","Pobedy Avenue, 19",55.748569,49.20345
781917,"г Казань, ул Аделя Кутуя 185","Adelya Kutuya Street, 185",55.763741,49.197539
782222,"г Казань, ул Курская 18","Kurskaya ulitsa, 18",55.789067,49.183067
782440,"г Казань, ул Академика Парина ",Akademika Parina Street,55.744804,49.184505
782468,"г Казань, пр-кт Победы 45","Pobedy Avenue, 45",55.755611,49.215757
782505,"г Казань, ул Сыртлановой 5","ulitsa Syrtlanovoy, 5",55.753215,49.193173
782562,"г Казань, ул Комиссара Габишева 10","ulitsa Komissara Gabisheva, 10",55.739635,49.228064
782584,"г Казань, ул Академика Глушко 32","Akademika Glushko Street, 32",55.789315,49.221722
782642,"г Казань, ул Латышских Стрелков 7","ulitsa Latyshskikh Strelkov, 7",55.762794,49.174497
782647,"г Казань, ул Татарстан 16","Tatarstan Street, 16",55.782425,49.114885
782671,"г Казань, ул Белинского 8","Belinskiy Street, 8",55.85433,49.079321
782688,"г Казань, ул Гагарина 45","ulitsa Gagarina, 45",55.83939,49.104986
782714,"г Казань, ул Галимджана Баруди 20","ulitsa Galimdzhana Barudi, 20",55.823383,49.069358
782730,"г Казань, ул Академика Сахарова 10","Akademika Sakharova Street, 10",55.779008,49.231612
782757,"г Казань, ул Академика Завойского 13","Akademika Zavoyskogo Street, 13",55.7586,49.239095
782770,"г Казань, ул Дементьева 37","ulitsa Dementyeva, 37",55.862009,49.103647
782909,"г Казань, ул Мусы Бигиева 20 ч/д","ulitsa Musy Bigiyeva, 20",55.871657,49.071308
783002,"г Казань, ул Рахимова 11","ulitsa Rakhimova, 11",55.839213,49.02668
783088,"г Казань, ул Авангардная 74","Avangardnaya Street, 74",55.740705,49.144287
783688,"г Казань, ул Спартаковская ",Spartakovskaya Street,55.774826,49.139831
783999,"г Казань, ул Даурская 10","Daurskaya ulitsa, 10",55.763397,49.146209
784210,"г Казань, ул Магаданская 18","Magadanskaya ulitsa, 18А",55.76835,49.164382
784344,"г Казань, ул Юлиуса Фучика 121","ulitsa Yuliusa Fuchika, 121",55.763498,49.229753
784362,"г Казань, ул Карбышева 62","ulitsa Karbysheva, 62",55.753727,49.178315
784380,"г Казань, ул Лейтенанта Красикова 6","ulitsa Leytenanta Krasikova, 6",55.819848,48.897116
784493,"г Казань, ул Кул Гали 14","ulitsa Kul Gali, 14",55.749831,49.231603
784502,"г Казань, ул Вишневского 3","Vishnevskiy Street, 3",55.791496,49.153225
784517,"г Казань, пр-кт Победы 68","Pobedy Avenue, 68",55.750859,49.217482
784524,"г Казань, ул Поперечно-Большая 1А","Poperechno-Bolshaya ulitsa, 11",55.880056,49.080722
784635,"г Казань, ул Мусина 70","Musina Street, 70",55.838329,49.121335
784670,"г Казань, ул Мусина 78","Musina Street, 78",55.839471,49.124317
784917,"г Казань, ул Шамиля Усманова 15","ulitsa Shamilya Usmanova, 15",55.829153,49.072035
784997,"г Казань, пр-кт Фатыха Амирхана 97","Fatykha Amirkhana Street, 97",55.840452,49.132133
785005,"г Казань, ул Юго-Западная 2-я 31","2nd Ugo-Zapadnaya Street, 31",55.821406,49.081019
785028,"г Казань, ул Ломжинская 11","Lomzhinskaya Street, 11",55.767261,49.226573
785054,"г Казань, ул Поперечно-Большая 8А","Poperechno-Bolshaya ulitsa, 8",55.880334,49.081746
785120,"г Казань, ул Карьерная (Киндери) 4","Karyernaya ulitsa, 4",55.864636,49.244081
785272,"г Казань, ул Рахимова 31","ulitsa Rakhimova, 31",55.840032,49.034764
785277,"г Казань, пр-кт Ямашева 85","Yamasheva Avenue, 85",55.825467,49.142957
785286,"г Казань, ул Восход 5А","Voskhod Street, 5А",55.826938,49.069915
785402,"г Казань, ул Шамиля Усманова 32","ulitsa Shamilya Usmanova, 32",55.831762,49.065738
785410,"г Казань, ул Декабристов 87","Dekabristov Street, 87",55.818599,49.0886
785462,"г Казань, ул Четаева 66","Chetaeva Street, 66",55.823312,49.112603
785486,"г Казань, ул Парковая 19","Parkovaya ulitsa, 19",55.859372,49.224039
785561,"г Казань, пр-кт Ямашева 87","Yamasheva Avenue, 87",55.826336,49.143838
785577,"г Казань, пр-кт Ибрагимова 13","Ibragimova Avenue, 13",55.839663,49.089786
785605,"г Казань, ул Сабан 7Б","ulitsa Saban, 7Б",55.826058,49.052829
785735,"г Казань, ул Звенигородская 51","Zvenigorodskaya ulitsa, 51",55.828081,48.874577
785741,"г Казань, ул Павлюхина 87","ulitsa Pavlyukhina, 87",55.769616,49.145311
785786,"г Казань, ул Хайдара Бигичева 6А","ulitsa Khaydara Bigicheva, 6А",55.783529,49.225405
785791,"г Казань, ул Оренбургский тракт 24В","Orenburgskiy trakt, 24В",55.752323,49.160852
785794,"г Казань, ул Давликеевская 3-я 19","3-ya Davlikeyevskaya ulitsa, 19",55.697894,49.147817
785897,"г Казань, ул Баженова 30","Bazhenova Street, 30",55.815312,49.084262
787465,"г Казань, ул Аделя Кутуя 86","Adelya Kutuya Street, 86А",55.781555,49.184037
787598,"г Казань, ул Минская 44","Minskaya Street, 44",55.771682,49.239023
789226,"г Казань, пгт Воровского 3",City of Kazan,55.798551,49.106324
789568,"г Казань, пр-кт Победы 226 А","Pobedy Avenue, 226А",55.807972,49.203872
789648,"г Казань, ул Университетская 7","Universitetskaya Street, 7/80",55.787604,49.119736
789862,"г Казань, ул Привокзальная 26","Privokzalnaya ulitsa, 26",55.814194,48.900412
790206,"г Казань, пр-кт Победы 69 А","Pobedy Avenue, 69А",55.760363,49.218084
790360,"г Казань, ул Южно-Промышленная 12","Yuzhno-Promyshlennaya ulitsa, 10",55.720555,49.127533
790374,"г Казань, ул Краснококшайская 150/2","Krasnokokshayskaya ulitsa, 150/2",55.817866,49.064157
790402,"г Казань, ул Советская 2","Sovetskaya ulitsa, 2",55.818473,49.271012
790426,"г Казань, ул Максимова 34/24","ulitsa Maksimova, 34/24",55.862843,49.086723
790433,"г Казань, пр-кт Победы 100","Pobedy Avenue, 100",55.768891,49.220832
790449,"г Казань, ул Гарифа Ахунова 16А","ulitsa Garifa Akhunova, 16",55.72814,49.175854
790465,"г Казань, ул Соликамская 25","Solikamskaya ulitsa, 25",55.878011,49.072359
790499,"г Казань, ул Гарифьянова 42","ulitsa Garifyanova, 42",55.751158,49.202902
790557,"г Казань, ул Достоевского 74А","Dostoevskogo Street, 74А",55.787123,49.158112
790576,"г Казань, пр-кт Победы ",Pobedy Avenue,55.771783,49.218937
790636,"г Казань, ул Марселя Салимжанова 2В","Marselya Salimzhanova Street, 2В",55.780917,49.12553
790656,"г Казань, ул Габдуллы Тукая (Салмачи) 18","ulitsa Gabdully Tukaya, 18",55.740086,49.265604
790667,"г Казань, ул Пушкина ",Pushkina Street,55.792554,49.124785
790677,"г Казань, ул Отарская 3-я 17","3-ya Otarskaya ulitsa, 17",55.722781,49.106136
790811,"г Казань, ул Академика Завойского 25","Akademika Zavoyskogo Street, 25",55.759532,49.247207
790861,"г Казань, ул Академика Завойского 14/74","Akademika Zavoyskogo Street, 14/74",55.757217,49.233049
791012,"г Казань, ул Дементьева 37","ulitsa Dementyeva, 37",55.862009,49.103647
791039,"г Казань, ул Чистопольская 4","Chistopolskaya Street, 4",55.818306,49.102192
791046,"г Казань, ул Челюскина 46","ulitsa Chelyuskina, 46",55.866096,49.081064
791231,"г Казань, ул Оренбургский тракт  24","Orenburgskiy trakt, 24",55.760454,49.144934
791451,"г Казань, ул Ломжинская 11","Lomzhinskaya Street, 11",55.767261,49.226573
791471,"г Казань, пр-кт Ибрагимова 28А","Ibragimova Avenue, 28А",55.833137,49.088636
791503,"г Казань, ул Красной Позиции 33","ulitsa Krasnoy Pozitsii, 33",55.781737,49.166871
791517,"г Казань, ул Чишмяле 13","Chishmyale Street, 13",55.763513,49.225037
791630,"г Казань, пр-кт Ямашева 35","Yamasheva Avenue, 35",55.825902,49.111022
791655,"г Казань, ул Восстания 15","ulitsa Vosstaniya, 15",55.834866,49.096515
791667,"г Казань, ул Подлужная 47","Podluzhnaya Street, 47",55.801764,49.141906
791731,"г Казань, ул Академика Сахарова 31","Akademika Sakharova Street, 31",55.781939,49.22324
791734,"г Казань, ул Мусина 68","Musina Street, 68",55.837459,49.121605
791822,"г Казань, ул Пушкина 17","Pushkina Street, 17",55.788839,49.123437
791934,"г Казань, ул Ютазинская 14","Yutazinskaya ulitsa, 14",55.842423,49.034809
791948,"г Казань, пр-кт Ямашева 76","Yamasheva Avenue, 76",55.827601,49.137298
792108,"г Казань, ул Годовикова 4","ulitsa Godovikova, 4",55.857958,49.096209
792170,"г Казань, ул Гагарина 51","ulitsa Gagarina, 51",55.839673,49.103468
792626,"г Казань, ул Академика Парина 3","Akademika Parina Street, 3",55.744667,49.194386
792690,"г Казань, ул Галактионова 6","Galaktionova Street, 6",55.792706,49.12633
793675,"г Казань, ул Батыршина 39","Batyrshina Street, 39",55.822205,49.06449
793783,"г Казань, ул Меридианная 30 ","Meridiannaya Street, 30",55.82573,49.118308
793969,"г Казань, тракт Сибирский 34","Sibirskiy trakt, 34",55.815752,49.182744
794039,"г Казань, ул Четаева 51","Chetaeva Street, 51",55.825001,49.111651
794108,"г Казань, ул Достоевского ",Dostoevskogo Street,55.7881,49.150701
794205,"г Казань, ул Рихарда Зорге 68","Richarda Zorge Street, 68",55.747444,49.211131
794245,"г Казань, пр-кт Победы 91","Pobedy Avenue, 91",55.768355,49.217176
794339,"г Казань, ул Муромская 4-я 115","4-ya Muromskaya ulitsa, 115",55.877794,49.024281
794429,"г Казань, ул Зинина 1","ulitsa Zinina, 1",55.791663,49.156899
794535,"г Казань, ул Кызыл Армейская 3/8","Kyzyl Armeyskaya Street, 3/8",55.803322,49.060968
794591,"г Казань, ул Наки Исанбета 53","ulitsa Naki Isanbeta, 53",55.783904,49.173842
794600,"г Казань, ул Тэцевская 293","Tetsevskaya ulitsa, 293",55.860388,48.951706
794744,"г Казань, ул Беломорская 73","Belomorskaya Street, 73",55.866344,49.018783
795049,"г Казань, ул Академика Лаврентьева 14","Akademika Lavrentyeva Street, 14",55.830574,49.15221
795358,"г Казань, ул Гагарина 93","ulitsa Gagarina, 93",55.836898,49.079491
795365,"г Казань, ул Восстания 105","ulitsa Vosstaniya, 105",55.832616,49.057384
795421,"г Казань, ул Юлиуса Фучика 86а","ulitsa Yuliusa Fuchika, 86А",55.761335,49.238547
795643,"г Казань, пр-кт Ямашева 54 ","Yamasheva Avenue, 54к1",55.827742,49.125494
796247,"г Казань, ул Декабристов 85","Dekabristov Street, 85",55.818589,49.090343
796695,"г Казань, ул Короленко 59","Korolenko Street, 59",55.83247,49.099766
797059,"г Казань, ул Баумана 13","Baumana Street, 13",55.791992,49.112837
797149,"г Казань, городок Военный 110",33-y Voyenny gorodok,55.737537,49.154959
797235,"г Казань, ул Беломорская 106","Belomorskaya Street, 106",55.866324,49.054402
797288,"г Казань, ул Заслонова 5","Zaslonova Street, 5",55.782238,49.152345
797310,"г Казань, ул Копылова 5/1","ulitsa Kopylova, 5/1",55.853259,49.083624
797323,"г Казань, ул Николая Ершова 20","Nikolay Ershov Street, 20",55.791754,49.158741
797440,"г Казань, тракт Мамадышский ",Mamadyshskiy trakt,55.801885,49.278361
797566,"г Казань, ул Кул Гали 10","ulitsa Kul Gali, 10",55.750317,49.228594
797632,"г Казань, ул Начальная 13","Nachalnaya ulitsa, 13",55.868703,49.227749
797723,"г Казань, ул Главная 69А","Glavnaya ulitsa, 69А",55.865925,49.217509
797818,"г Казань, ул Академика Лаврентьева 24","Akademika Lavrentyeva Street, 24",55.833319,49.15389
797820,"г Казань, ул Правды (Дербышки) 4 А","ulitsa Pravdy, 4А",55.866894,49.227848
797846,"г Казань, ул Халезова 22Б","ulitsa Khalezova, 22Б",55.865202,49.216413
797860,"г Казань, ул Мира 1 В","ulitsa Mira, 1В",55.867192,49.235664
797872,"г Казань, ул Дубравная 21","Dubravnaya ulitsa, 21",55.740107,49.214688
797888,"г Казань, ул Пугачева 45","Pugachyovskaya ulitsa, 45",55.783833,49.158489
797906,"г Казань, ул Чингиза Айтматова 6","ulitsa Chingiza Aytmatova, 6",55.76484,49.234343
797943,"г Казань, ул Дежнева 2","ulitsa Dezhnyova, 2А",55.816384,49.080345
798042,"г Казань, ул Гарифьянова 25","ulitsa Garifyanova, 25",55.750555,49.204034
798114,"г Казань, ул Академика Кирпичникова 8","Akademika Kirpichnikova Street, 8",55.806828,49.187694
798195,"г Казань, ул Хусаина Мавлютова 45","ulitsa Khusaina Mavlyutova, 45",55.744617,49.192832
798234,"г Казань, ул Абжалилова 1","Abzhalilova Street, 1/82",55.78646,49.160717
798332,"г Казань, ул Хусаина Мавлютова 9","ulitsa Khusaina Mavlyutova, 9",55.75517,49.189562
798348,"г Казань, ул Сафьян 8","Safyan Street, 8/79",55.776644,49.117472
798385,"г Казань, ул Шамиля Усманова 35","ulitsa Shamilya Usmanova, 35",55.831671,49.062953
798389,"г Казань, ул Октябрьская 32","Oktyabrskaya ulitsa, 32",55.841064,49.093586
798408,"г Казань, ул Ноксинский Спуск 43","ulitsa Noksinskiy Spusk, 43",55.769342,49.24338
798424,"г Казань, ул Чистопольская 55","Chistopolskaya Street, 55",55.819767,49.128836
798447,"г Казань, ул Чингиза Айтматова 1","ulitsa Chingiza Aytmatova, 1",55.765762,49.23234
798464,"г Казань, ул Привокзальная 26","Privokzalnaya ulitsa, 26",55.814194,48.900412
798479,"г Казань, ул Мусина 70","Musina Street, 70",55.838329,49.121335
798483,"г Казань, ул Космонавтов 11А","ulitsa Kosmonavtov, 11А",55.802027,49.191709
798577,"г Казань, ул Муромская 2-я 88","2-ya Muromskaya ulitsa, 88",55.875127,49.026787
798634,"г Казань, пр-кт Победы 138","Pobedy Avenue, 138",55.780036,49.224147
798837,"г Казань, ул Побежимова 34А","ulitsa Pobezhimova, 34А",55.860039,49.081468
798840,"г Казань, пер Айнур (Кульсеитово) 18","Aynur Lane, 13",55.901945,49.235574
798867,"г Казань, пгт Вишневка 6",City of Kazan,55.798551,49.106324
798974,"г Казань, ул Гаврилова 8","Gavrilova Street, 8",55.830665,49.157043
798994,"г Казань, ул Оренбургский тракт 128Б","Orenburgskiy trakt, 128Б",55.737593,49.168218
799460,"г Казань, ул Галимджана Баруди 3","ulitsa Galimdzhana Barudi, 3",55.818973,49.063771
800180,"г Казань, ул Голубятникова ",ulitsa Golubyatnikova,55.838531,49.115469
800409,"г Казань, ул Чкалова 1","ulitsa Chkalova, 1",55.819418,49.058273
800577,"г Казань, ул Лушникова 7","ulitsa Lushnikova, 7",55.819808,49.083202
800631,"г Казань, ул Комарова 2","ulitsa Komarova, 2/3",55.75898,49.172575
800788,"г Казань, ул Габдуллы Тукая 152","Gabdully Tukaya Street, 152",55.767301,49.124506
800819,"г Казань, ул Дементьева 3","ulitsa Dementyeva, 3",55.857154,49.099775
801618,"г Казань, ул Зинина 1","ulitsa Zinina, 1",55.791663,49.156899
802066,"г Казань, ул Богатырева 2/5","ulitsa Bogatyryova, 2",55.815554,49.057402
802212,"г Казань, ул Короленко 73","Korolenko Street, 73",55.833951,49.100539
802359,"г Казань, ул Чистопольская 5 А","Chistopolskaya Street, 5А",55.820349,49.101482
802651,"г Казань, пр-кт Фатыха Амирхана 89","Fatykha Amirkhana Street, 89",55.839567,49.130902
802730,"г Казань, ул Самарская 8","Samarskaya ulitsa, 8",55.823904,49.037675
802925,"г Казань, ул Комиссара Габишева 45","ulitsa Komissara Gabisheva, 45",55.75747,49.239984
802951,"г Казань, ул Гафиатуллина 7","ulitsa Gafiatullina, 7",55.87492,49.048688
803119,"г Казань, ул Адоратского 49","Adoratskogo Street, 49",55.841898,49.141862
803185,"г Казань, ул Комиссара Габишева 23","ulitsa Komissara Gabisheva, 23",55.752931,49.238089
803331,"г Казань, ул Жилгородок МО-3 20",City of Kazan,55.798551,49.106324
803505,"г Казань, пр-кт Победы 101","Pobedy Avenue, 101",55.772229,49.217185
804245,"г Казань, пр-кт Победы 141","Pobedy Avenue, 141",55.780957,49.213125
804353,"г Казань, ул Фрунзе 15","ulitsa Frunze, 15",55.82135,49.051904
804434,"г Казань, ул Академика Губкина 13","Akademika Gubkina Street, 13",55.805634,49.190703
804471,"г Казань, ул Гарифьянова 42","ulitsa Garifyanova, 42",55.751158,49.202902
804533,"г Казань, ул Аяз (Царицыно) 12","Ayaz Street, 12",55.815428,49.218048
804554,"г Казань, ул 25 Октября 6","ulitsa 25 Oktyabrya, 6",55.815418,49.063528
804557,"г Казань, городок Научный 4","Nauchny Gorodok, 4",55.884989,49.269252
804648,"г Казань, ул Академика Кирпичникова 12","Akademika Kirpichnikova Street, 12",55.807673,49.187271
804671,"г Казань, ул Юлиуса Фучика 90","ulitsa Yuliusa Fuchika, 90",55.763478,49.233274
804777,"г Казань, ул Восстания 92А","ulitsa Vosstaniya, 92А",55.832363,49.053719
804839,"г Казань, пр-кт Победы 158","Pobedy Avenue, 158",55.784526,49.220913
804904,"г Казань, ул Рихарда Зорге 66","Richarda Zorge Street, 66",55.747976,49.210394
804968,"г Казань, ул Академика Глушко 8","Akademika Glushko Street, 8",55.779722,49.236697
805018,"г Казань, ул Октябрьская 10","Oktyabrskaya ulitsa, 10",55.837793,49.096344
805040,"г Казань, ул Курчатова 17","ulitsa Kurchatova, 17",55.75823,49.16652
805063,"г Казань, ул Шоссейная 21","Shosseynaya Street, 21",55.808498,49.083094
805077,"г Казань, ул Юлиуса Фучика 110","ulitsa Yuliusa Fuchika, 110",55.771839,49.232421
805120,"г Казань, ул Окольная 11","Okolnaya ulitsa, 11",55.830695,49.056135
805134,"г Казань, ул Ломжинская 13","Lomzhinskaya Street, 13",55.767868,49.227839
805143,"г Казань, тракт Мамадышский ",Mamadyshskiy trakt,55.801885,49.278361
805168,"г Казань, ул Джаудата Файзи 1","ulitsa Dzhaudata Fayzi, 1",55.789735,49.22792
805203,"г Казань, ул Курчатова 10","ulitsa Kurchatova, 10",55.759745,49.173069
805225,"г Казань, ул Волгоградская 4","Volgogradskaya ulitsa, 4",55.830473,49.083202
805348,"г Казань, тракт Мамадышский ",Mamadyshskiy trakt,55.801885,49.278361
805393,"г Казань, ул Шамиля Усманова 11","ulitsa Shamilya Usmanova, 11",55.828399,49.073742
805500,"г Казань, ул Адоратского 6","Adoratskogo Street, 6",55.828905,49.14832
805586,"г Казань, ул Хусаина Мавлютова 21","ulitsa Khusaina Mavlyutova, 21",55.748802,49.191386
805825,"г Казань, ул Вишневского 49Б","Vishnevskiy Street, 49Б",55.784627,49.151617
807213,"г Казань, ул Батыршина 39","Batyrshina Street, 39",55.822205,49.06449
807239,"г Казань, ул Космонавтов 28","ulitsa Kosmonavtov, 28",55.797645,49.191179
807658,"г Казань, ул Патриса Лумумбы 1","ulitsa Patrisa Lumumby, 1/111",55.7943,49.182825
807733,"г Казань, пр-кт Фатыха Амирхана 1","Fatykha Amirkhana Street, 1",55.815261,49.131495
807823,"г Казань, ул Декабристов 189","Dekabristov Street, 189",55.835437,49.079977
807906,"г Казань, ул Хайдара Бигичева 35","ulitsa Khaydara Bigicheva, 35",55.792685,49.228549
807998,"г Казань, ул Карбышева 7","ulitsa Karbysheva, 7",55.765458,49.178207
808107,"г Казань, ул Полевая 2-я (Вознесенское) 5","2-ya Polevaya ulitsa, 5",55.760555,49.255139
808322,"г Казань, ул Айдарова ",Aydarova Street,55.869763,49.067706
808334,"г Казань, ул Варшавская 19","Varshavskaya ulitsa, 17/20",55.847164,48.893756
808393,"г Казань, ул Короленко 109","Korolenko Street, 109",55.842737,49.097224
808445,"г Казань, ул Академика Губкина 48","Akademika Gubkina Street, 48",55.807845,49.19612
808454,"г Казань, ул Муромская 4-я 89","4-ya Muromskaya ulitsa, 89",55.875375,49.024083
808928,"г Казань, ул Дубинина 7","ulitsa Dubinina, 7",55.867142,49.050063
808978,"г Казань, ул Мусина 59 ","Musina Street, 59",55.833496,49.122889
808996,"г Казань, ул Маршала Чуйкова 25а","ulitsa Marshala Chuykova, 25А",55.837323,49.124506
810094,"г Казань, ул Закиева 13","Zakieva Street, 13",55.776472,49.227085
810704,"г Казань, ул Гарифа Ахунова 18","ulitsa Garifa Akhunova, 18",55.727633,49.174677
810928,"г Казань, пр-кт Победы ",Pobedy Avenue,55.771783,49.218937
810941,"г Казань, пр-кт Фатыха Амирхана 54","Fatykha Amirkhana Street, 52",55.845997,49.141269
810969,"г Казань, ул Белинского 29А","Belinskiy Street, 29А",55.852389,49.067517
811005,"г Казань, ул Большая Красная 22А","Bolshaya Krasnaya Street, 22А",55.797852,49.11723
811112,"г Казань, пр-кт Ибрагимова 2","Ibragimova Avenue, 2",55.841695,49.086229
811144,"г Казань, ул Сыртлановой 9","ulitsa Syrtlanovoy, 9",55.753098,49.194296
811168,"г Казань, ул Мусина 74","Musina Street, 74",55.83844,49.123033
811392,"г Казань, ул Даурская 38","Daurskaya ulitsa, 38",55.764136,49.174452
811415,"г Казань, ул Сибгата Хакима 35","Sibgata Khakima Street, 35",55.816495,49.13861
811416,"г Казань, ул Черемховская 21","Cheremkhovskaya ulitsa, 21",55.821189,48.900655
811424,"г Казань, ул Патриса Лумумбы ",ulitsa Patrisa Lumumby,55.79345,49.180238
811430,"г Казань, ул Советская 9","Sovetskaya ulitsa, 9",55.817011,49.268245
811477,"г Казань, ул Кул Гали 7","ulitsa Kul Gali, 7",55.753686,49.226303
811521,"г Казань, ул Восстания 58","ulitsa Vosstaniya, 58",55.833546,49.071694
811579,"г Казань, ул Светлая 21","Svetlaya ulitsa, 21",55.823535,49.042939
811628,"г Казань, ул Кремлевская 6","Kremlevskaya Street, 6/20",55.793748,49.115029
811634,"г Казань, ул Залесная 113","Zalesnaya ulitsa, 113",55.853061,48.876823
811680,"г Казань, ул Челюскина 56","ulitsa Chelyuskina, 56",55.8679,49.080857
811708,"г Казань, ул Мусина 59Б","Musina Street, 59Б",55.827843,49.121443
811799,"г Казань, ул Высотная 7","Vysotnaya ulitsa, 7",55.76328,49.1705
811813,"г Казань, ул Литвинова 1А","ulitsa Litvinova, 1А",55.877243,49.075323
811823,"г Казань, ул Ноксинский Спуск 26","ulitsa Noksinskiy Spusk, 26",55.76761,49.241898
812076,"г Казань, ул Бондаренко 28","Bondarenko Street, 28",55.818569,49.105462
812110,"г Казань, ул Вишневского 49","Vishnevskiy Street, 49",55.785169,49.151033
812122,"г Казань, ул Грачиная (Вознесенское) 33","Grachinaya ulitsa, 33",55.76679,49.260008
812133,"г Казань, ул Софьи Перовской 16","ulitsa Sofyi Perovskoy, 14",55.869748,49.047979
812147,"г Казань, ул Академика Сахарова 17","Akademika Sakharova Street, 17",55.780618,49.2281
812167,"г Казань, ул Маршала Чуйкова 50","ulitsa Marshala Chuykova, 50",55.834937,49.129752
812196,"г Казань, ул Рихарда Зорге 56","Richarda Zorge Street, 56",55.752394,49.200369
812410,"г Казань, ул Чистопольская 25","Chistopolskaya Street, 25",55.819944,49.118928
812477,"г Казань, ул Восстания 65","ulitsa Vosstaniya, 65",55.83292,49.070032
812561,"г Казань, ул Адмиралтейская 21","Admiralteyskaya Street, 21",55.798581,49.051536
812568,"г Казань, городок Октябрьский 1/150","Oktyabrskiy gorodok, 1/150",55.799542,49.18764
812856,"г Казань, ул Красной Позиции 41","ulitsa Krasnoy Pozitsii, 41",55.778821,49.169036
812868,"г Казань, ул Серова 9","Serova Street, 9",55.829613,49.063906
812890,"г Казань, тракт Сибирский ",Sibirskiy trakt,55.827762,49.189885
812942,"г Казань, пр-кт Ямашева 48","Yamasheva Avenue, 48",55.828743,49.124246
812963,"г Казань, ул Гвардейская 53А","Gvardeyskaya ulitsa, 53А",55.772796,49.18004
813017,"г Казань, пр-кт Ямашева 36","Yamasheva Avenue, 36",55.828804,49.101734
813724,"г Казань, ул Комиссара Габишева 17","ulitsa Komissara Gabisheva, 17",55.747581,49.23578
814571,"г Казань, ул Дементьева 2 А","ulitsa Dementyeva, 2А",55.854229,49.09806
814638,"г Казань, ул Минская ",Minskaya Street,55.772456,49.232016
815242,"г Казань, ул Адоратского 63","Adoratskogo Street, 63",55.844713,49.146191
816222,"г Казань, ул Академика Павлова 25","Akademika Pavlova Street, 25",55.86594,49.096092
816921,"г Казань, ул Чистопольская 6","Chistopolskaya Street, 6",55.818326,49.103315
816997,"г Казань, пр-кт Ямашева ",Yamasheva Avenue,55.827019,49.13286
817361,"г Казань, ул Маршала Чуйкова 49","ulitsa Marshala Chuykova, 49",55.8375,49.137514
817473,"г Казань, ул Советская 13","Sovetskaya ulitsa, 13",55.816632,49.267698
817923,"г Казань, ул Московская ",Moskovskaya Street,55.788884,49.107923
817933,"г Казань, ул Закиева 41","Zakieva Street, 41",55.777024,49.232439
817963,"г Казань, ул Журналистов ",Zhurnalistov Street,55.819929,49.192464
817973,"г Казань, ул Комиссара Габишева 25А","ulitsa Komissara Gabisheva, 25А",55.753985,49.238969
817994,"г Казань, ул Чишмяле 15","Chishmyale Street, 15",55.762596,49.22598
818064,"г Казань, пр-кт Ямашева 43","Yamasheva Avenue, 43",55.826286,49.117778
818074,"г Казань, ул Вербная 1","Verbnaya ulitsa, 1",55.76173,49.23358
818158,"г Казань, ул Хайдара Бигичева 26","ulitsa Khaydara Bigicheva, 26",55.786379,49.226186
818296,"г Казань, ул Рихарда Зорге 39","Richarda Zorge Street, 39",55.754238,49.202947
818377,"г Казань, ул Журналистов 20","Zhurnalistov Street, 20",55.80997,49.189634
818398,"г Казань, ул Карима Тинчурина 9","Karima Tinchurina Street, 9",55.776725,49.105875
818540,"г Казань, ул Мусина 59Б","Musina Street, 59Б",55.827843,49.121443
818577,"г Казань, ул Академика Сахарова 1А","Akademika Sakharova Street, 1А",55.778568,49.229995
818610,"г Казань, пр-кт Ямашева 61","Yamasheva Avenue, 61",55.825487,49.127947
818674,"г Казань, ул Дубравная 27","Dubravnaya ulitsa, 27",55.741039,49.213924
818707,"г Казань, ул Доватора 6","ulitsa Dovatora, 6",55.736067,49.147584
818719,"г Казань, ул Привокзальная 28","Privokzalnaya ulitsa, 28",55.813683,48.900655
818762,"г Казань, ул Гарифьянова 11","ulitsa Garifyanova, 11",55.751847,49.198698
818776,"г Казань, ул Гаврилова 48","Gavrilova Street, 48",55.840341,49.156253
818852,"г Казань, ул Закиева 13","Zakieva Street, 13",55.776472,49.227085
818859,"г Казань, ул Братьев Касимовых 6","Bratyev Kasimovykh Street, 6",55.755895,49.180723
819039,"г Казань, ул Лукина 17","ulitsa Lukina, 17",55.864212,49.091601
819073,"г Казань, ул Липатова 23А","ulitsa Lipatova, 23А",55.865566,49.215559
819109,"г Казань, ул Рихарда Зорге 52","Richarda Zorge Street, 52",55.753109,49.19974
819118,"г Казань, ул Васильковая (Салмачи) 36","Vasilkovaya ulitsa, 36",55.749785,49.288431
819203,"г Казань, пр-кт Ямашева 63","Yamasheva Avenue, 63",55.826165,49.130336
819374,"г Казань, ул Рыбацкая 4","Rybatskaya ulitsa, 4",55.705752,49.144197
819394,"г Казань, ул Академика Павлова 25А","Akademika Pavlova Street, 25А",55.865172,49.095419
819406,"г Казань, тер Деревня Универсиады 5","territoriya Derevnya Universiady, 5",55.743694,49.180471
819418,"г Казань, ул Декабристов 156","Dekabristov Street, 156",55.83206,49.080911
819439,"г Казань, ул Голубятникова 16","ulitsa Golubyatnikova, 16",55.83756,49.111741
819447,"г Казань, ул Салиха Батыева 15","ulitsa Salikha Batyyeva, 15",55.754552,49.243182
819450,"г Казань, ул Константина Симонова 6","ulitsa Simonova, 6",55.865339,49.090954
819465,"г Казань, пр-кт Альберта Камалеева 20","prospekt Alberta Kamaleyeva, 20",55.787477,49.183705
819491,"г Казань, ул Давликеевская 11-я 26","11-ya Davlikeyevskaya ulitsa, 26",55.691633,49.148698
819524,"г Казань, ул Академика Парина 1","Akademika Parina Street, 1",55.74486,49.195805
819586,"г Казань, ул Максимова ",ulitsa Maksimova,55.862772,49.08171
819793,"г Казань, ул Академика Глушко 28","Akademika Glushko Street, 28",55.789244,49.225683
820165,"г Казань, ул Рихарда Зорге 77","Richarda Zorge Street, 77",55.747627,49.214338
820212,"г Казань, ул Кулахметова 25","ulitsa Kulakhmetova, 25к1",55.830523,49.06025
820541,"г Казань, ул Бухарская ",Bukharskaya ulitsa,55.773337,49.195994
821707,"г Казань, пр-кт Ямашева 100","Yamasheva Avenue, 100",55.827596,49.153962
821793,"г Казань, ул Ачинская 22","Achinskaya Street, 22",55.738596,49.14947
821840,"г Казань, ул Хусаина Мавлютова 21","ulitsa Khusaina Mavlyutova, 21",55.748802,49.191386
821846,"г Казань, ул Чистопольская 10/8","Chistopolskaya Street, 10/8",55.81871,49.104042
821917,"г Казань, тракт Сибирский 22","Sibirskiy trakt, 22/6",55.811862,49.181792
821961,"г Казань, ул Пушкина 31","Pushkina Street, 31",55.793672,49.124551
822108,"г Казань, ул Волкова 19","Volkova Street, 19",55.784228,49.135699
822115,"г Казань, тракт Сибирский ",Sibirskiy trakt,55.827762,49.189885
822133,"г Казань, ул Юлиуса Фучика 93","ulitsa Yuliusa Fuchika, 93Б",55.75134,49.227417
822148,"г Казань, ул Братьев Касимовых 32","Bratyev Kasimovykh Street, 32",55.754983,49.194503
822160,"г Казань, ул Родины 29","Rodiny Street, 29",55.765453,49.204429
822251,"г Казань, ул Качалова 78","ulitsa Kachalova, 78",55.774087,49.144574
822285,"г Казань, ул Завокзальная ",Zavokzalnaya ulitsa,55.808093,48.948077
823195,"г Казань, ул Сыртлановой 20","ulitsa Syrtlanovoy, 20",55.746907,49.196102
824126,"г Казань, ул Восстания 80","ulitsa Vosstaniya, 80",55.833734,49.063052
825014,"г Казань, ул Центральная (Салмачи) ",Tsentralnaya ulitsa,55.742529,49.286338
825061,"г Казань, ул Чистопольская между 39 и 43","Chistopolskaya Street, 39",55.820389,49.125377
825113,"г Казань, ул Академика Павлова 23А","Akademika Pavlova Street, 23А",55.864252,49.098428
825175,"г Казань, пр-кт Фатыха Амирхана 71","Fatykha Amirkhana Street, 71",55.834451,49.132609
825195,"г Казань, ул Аделя Кутуя 7","Adelya Kutuya Street, 7",55.787568,49.169584
825280,"г Казань, ул Адоратского 19","Adoratskogo Street, 19",55.8307,49.146685
825290,"г Казань, ул Адоратского 66","Adoratskogo Street, 66",55.842666,49.154707
825298,"г Казань, ул Юлиуса Фучика 97","ulitsa Yuliusa Fuchika, 97",55.752764,49.229519
825338,"г Казань, ул Ноксинский Спуск 26","ulitsa Noksinskiy Spusk, 26",55.76761,49.241898
825461,"г Казань, ул Воркутинская 16","Vorkutinskaya ulitsa, 16",55.822443,48.91651
825548,"г Казань, ул Академика Королева 73","Akademika Korolyova Street, 73",55.839062,49.061471
825590,"г Казань, ул Гагарина 75","ulitsa Gagarina, 75",55.838111,49.092993
825596,"г Казань, ул Карима Тинчурина 7А","Karima Tinchurina Street, 7А",55.777418,49.10512
825607,"г Казань, ул Ленинградская 32А","Leningradskaya ulitsa, 32А",55.865985,49.089238
825797,"г Казань, ул Адоратского 27","Adoratskogo Street, 27",55.837045,49.146748
825801,"г Казань, пр-кт Победы 32","Pobedy Avenue, 32",55.742798,49.199686
825815,"г Казань, ул Габдуллы Кариева 6","ulitsa Gabdully Kariyeva, 6",55.785842,49.186499
825844,"г Казань, ул Четаева 20","Chetaeva Street, 20",55.823429,49.131163
826022,"г Казань, ул Хусаина Мавлютова 45","ulitsa Khusaina Mavlyutova, 45",55.744617,49.192832
826025,"г Казань, ул Академика Павлова 23","Akademika Pavlova Street, 23",55.865243,49.098006
826042,"г Казань, ул Краснококшайская 150/2","Krasnokokshayskaya ulitsa, 150/2",55.817866,49.064157
826073,"г Казань, ул Исаева (Большие Дербышки) 28","ulitsa Isayeva, 28",55.880955,49.192805
826084,"г Казань, ул Татарстан 16","Tatarstan Street, 16",55.782425,49.114885
826097,"г Казань, ул Батыршина 25","Batyrshina Street, 25",55.823489,49.060052
826126,"г Казань, ул Гаврилова 76","Gavrilova Street, 77",55.844228,49.153144
826255,"г Казань, ул Минская 40","Minskaya Street, 40",55.771666,49.237676
826338,"г Казань, ул Давликеевская 8-я 72","8-ya Davlikeyevskaya ulitsa, 72",55.691826,49.152525
826397,"г Казань, ул Восстания 23","ulitsa Vosstaniya, 23",55.834937,49.093613
826426,"г Казань, ул Серова 14","Serova Street, 14",55.824946,49.064283
826477,"г Казань, ул Вишневского 59","Vishnevskiy Street, 59",55.781813,49.148545
826623,"г Казань, ул Маршала Чуйкова 77","ulitsa Marshala Chuykova, 77",55.836954,49.151995
826625,"г Казань, пр-кт Победы 174","Pobedy Avenue, 174",55.786708,49.222629
826669,"г Казань, ул Хусаина Мавлютова 9","ulitsa Khusaina Mavlyutova, 9",55.75517,49.189562
826686,"г Казань, ул Япеева 10","Yapeeva Street, 10",55.799492,49.116385
826738,"г Казань, ул Патриса Лумумбы ",ulitsa Patrisa Lumumby,55.79345,49.180238
827044,"г Казань, ул Ботаническая 23","Botanicheskaya ulitsa, 23/31",55.764977,49.140676
827319,"г Казань, ул Лечебная 7","Lechebnaya ulitsa, 7",55.858043,49.077848
828825,"г Казань, ул Музыкальная 13","Muzykalnaya ulitsa, 13",55.818726,49.049856
828964,"г Казань, ул Маршала Чуйкова 69/1","ulitsa Marshala Chuykova, 69/1",55.836251,49.14682
829122,"г Казань, ул Юлиуса Фучика 127","ulitsa Yuliusa Fuchika, 127",55.763908,49.227327
829179,"г Казань, пр-кт Победы 93","Pobedy Avenue, 93",55.768162,49.214904
829555,"г Казань, ул Академика Королева 43 и 45","Akademika Korolyova Street, 43",55.838359,49.070347
829717,"г Казань, ул Фрунзе 17","ulitsa Frunze, 17",55.820708,49.053988
829755,"г Казань, ул Кул Гали 24","ulitsa Kul Gali, 24",55.749896,49.238242
829763,"г Казань, ул Баумана 62","Baumana Street, 62",55.789841,49.116161
829941,"г Казань, ул Дубравная 14а","Dubravnaya ulitsa, 14А",55.737122,49.207088
830013,"г Казань, ул Приволжская (Аракчино) 245","Privolzhskaya ulitsa, 245",55.801506,48.95529
830388,"г Казань, ул Академика Глушко 15","Akademika Glushko Street, 15",55.782962,49.234307
830402,"г Казань, ул Патриса Лумумбы 64","ulitsa Patrisa Lumumby, 64",55.794948,49.192068
830459,"г Казань, ул Комиссара Габишева 19 б","ulitsa Komissara Gabisheva, 19Б",55.74944,49.236382
830625,"г Казань, ул Достоевского ",Dostoevskogo Street,55.7881,49.150701
831935,"г Казань, пр-кт Фатыха Амирхана 34","Fatykha Amirkhana Street, 34",55.841114,49.137118
832899,"г Казань, ул Восстания 26","ulitsa Vosstaniya, 26",55.835104,49.090469
832956,"г Казань, ул Большая Красная 7/9","Bolshaya Krasnaya Street, 7/9",55.798632,49.115523
832974,"г Казань, ул Краснококшайская 140","Krasnokokshayskaya ulitsa, 140",55.816778,49.066439
833033,"г Казань, ул Меридианная 17","Meridiannaya Street, 17",55.824562,49.114193
833083,"г Казань, п Малые Дербышки ",zhiloy massiv Malyye Derbyshki,55.861944,49.199147
833229,"г Казань, ул Коллективная 39","Kollektivnaya ulitsa, 39",55.832652,49.095113
833265,"г Казань, ул Меховщиков 2","Mekhovshchikov Street, 2",55.772461,49.099632
833439,"г Казань, пр-кт Победы 56","Pobedy Avenue, 56",55.750297,49.211589
833447,"г Казань, ул Дениса Давыдова 40","ulitsa Denisa Davydova, 38/159",55.870188,49.047574
833522,"г Казань, ул Бурхана Шахиди 1/15","Burkhana Shakhidi Street, 1/15",55.78896,49.10221
833565,"г Казань, ул Дементьева 33А","ulitsa Dementyeva, 33А",55.860342,49.100728
833618,"г Казань, ул Челюскина 66","ulitsa Chelyuskina, 66",55.871481,49.081117
833630,"г Казань, ул Лядова 10","ulitsa Lyadova, 10",55.85342,49.077785
833683,"г Казань, ул Ново-Азинская 43","Novo-Azinskaya Street, 43",55.814699,49.19797
833868,"г Казань, ул Декабристов 100","Dekabristov Street, 100",55.825598,49.08604
833907,"г Казань, ул Николая Ершова ",Nikolay Ershov Street,55.793419,49.167068
834071,"г Казань, ул Марселя Салимжанова 14","Marselya Salimzhanova Street, 14",55.774649,49.135142
834234,"г Казань, ул Восстания 12","ulitsa Vosstaniya, 12",55.83616,49.096766
834322,"г Казань, ул Гарифа Ахунова 16","ulitsa Garifa Akhunova, 16",55.72814,49.175854
834423,"г Казань, ул Даурская 11","Daurskaya ulitsa, 11",55.765007,49.172683
834528,"г Казань, ул Восход 3","Voskhod Street, 3",55.826392,49.070356
834545,"г Казань, ул Меридианная 3А","Meridiannaya Street, 3А",55.81776,49.113232
834657,"г Казань, ул Хади Такташа 78А","Khadi Taktasha Street, 78Ак1",55.769813,49.131315
834879,"г Казань, ул Октябрьская 5А","Oktyabrskaya ulitsa, 5А",55.837505,49.093775
834911,"г Казань, ул Юлиуса Фучика 20","ulitsa Yuliusa Fuchika, 20",55.741875,49.21423
834927,"г Казань, ул Услонская (Малые Дербышки) 2","Uslonskaya ulitsa, 2",55.866854,49.192688
834954,"г Казань, ул Павлюхина 99Б","ulitsa Pavlyukhina, 99Б",55.767398,49.150952
835019,"г Казань, ул Центральная (Вознесенское) 25Б","Tsentralnaya ulitsa, 25Б",55.745346,49.26891
835096,"г Казань, ул Декабристов 129","Dekabristov Street, 129",55.826756,49.083426
837569,"г Казань, ул Лукницкого 5","ulitsa Luknitskogo, 5/1",55.814376,49.064642
837627,"г Казань, ул Донецкая 21","Donetskaya ulitsa, 21",55.866809,49.076671
837656,"г Казань, ул Новосельская 2-я 9","2-ya Novoselskaya ulitsa, 9",55.69283,49.14196
837695,"г Казань, ул Актайская 15","Aktayskaya Street, 15",55.744353,49.139553
837721,"г Казань, ул Чапаева 11/43","ulitsa Chapayeva, 11/43",55.862318,49.080866
837994,"г Казань, ул Юлиуса Фучика 14","ulitsa Yuliusa Fuchika, 14",55.742559,49.211894
838046,"г Казань, ул Ломжинская 2","Lomzhinskaya Street, 2",55.765974,49.222108
838091,"г Казань, ул Адоратского 27","Adoratskogo Street, 27",55.837045,49.146748
838129,"г Казань, ул Кул Гали 11/52а","ulitsa Kul Gali, 11/52А",55.751133,49.232636
838144,"г Казань, ул Белинского 27","Belinskiy Street, 27",55.85341,49.068316
838174,"г Казань, ул Сафиуллина 5","Safiullina Street, 5",55.750753,49.22598
838296,"г Казань, ул Минская 9","Minskaya Street, 9",55.773449,49.230408
838532,"г Казань, ул Галимджана Баруди 8","ulitsa Galimdzhana Barudi, 8",55.819884,49.066277
838616,"г Казань, ул Беломорская 17/37","Belomorskaya Street, 17/37",55.864899,49.07783
838712,"г Казань, ул Кулахметова 18","ulitsa Kulakhmetova, 18",55.825634,49.05601
838740,"г Казань, ул Адоратского 47","Adoratskogo Street, 47",55.841791,49.139831
839164,"г Казань, ул Вишневского 51","Vishnevskiy Street, 51/1",55.784197,49.150683
839515,"г Казань, ул Рихарда Зорге 97","Richarda Zorge Street, 97",55.744429,49.219772
839735,"г Казань, ул Юлиуса Фучика 82","ulitsa Yuliusa Fuchika, 82",55.760043,49.234253
839799,"г Казань, пр-кт Фатыха Амирхана 3","Fatykha Amirkhana Street, 3",55.817658,49.130174
839869,"г Казань, ул Четаева 35","Chetaeva Street, 35",55.824597,49.121362
839939,"г Казань, ул Четаева 20","Chetaeva Street, 20",55.823429,49.131163
839974,"г Казань, ул Муромская 4-я ",4-ya Muromskaya ulitsa,55.87241,49.024065
840040,"г Казань, ул Болынлык (Кульсеитово) 43 ч/с","ulitsa Bolynlyk, 35",55.904619,49.224057
840205,"г Казань, пр-кт Ямашева 37А ","Yamasheva Avenue, 37А",55.826306,49.112253
841294,"г Казань, ул Островского 9","Ostrovskogo Street, 9/3",55.790291,49.113322
841453,"г Казань, ул Юлиуса Фучика 135","ulitsa Yuliusa Fuchika, 135",55.768593,49.230534
842102,"г Казань, ул Шоссейная 24","Shosseynaya Street, 24",55.807698,49.082411
844123,"г Казань, ул Владимира Кулагина 4","Vladimira Kulagina Street, 4",55.743122,49.142293
844549,"г Казань, ул Рихарда Зорге 13 б","Richarda Zorge Street, 13Б",55.75902,49.190487
844737,"г Казань, ул Белинского 25","Belinskiy Street, 25",55.853435,49.069179
844824,"г Казань, ул Большая Красная 57 б","Bolshaya Krasnaya Street, 57Б",55.797766,49.138457
844873,"г Казань, ул Степана Разина 48","ulitsa Stepana Razina, 48",55.784855,49.17235
844888,"г Казань, ул Чернышевского 39","Chernyshevskogo Street, 39",55.788839,49.104635
844996,"г Казань, пр-кт Победы 66","Pobedy Avenue, 66",55.751325,49.216413
845162,"г Казань, ул Хайдара Бигичева 9","ulitsa Khaydara Bigicheva, 9",55.785058,49.222413
845208,"г Казань, пер Бадаева 2-я 3","2nd Badaeva Lane, 5",55.876354,49.038825
845292,"г Казань, пр-кт Победы ",Pobedy Avenue,55.771783,49.218937
845328,"г Казань, ул Айдарова 22","Aydarova Street, 22",55.869965,49.078503
845377,"г Казань, ул Сафиуллина 50","Safiullina Street, 50",55.7464,49.229851
845445,"г Казань, ул Аделя Кутуя 10","Adelya Kutuya Street, 10",55.786237,49.16785
845911,"г Казань, ул Ново-Караваевская 4","Novo-Karavayevskaya ulitsa, 4",55.869516,49.086768
845920,"г Казань, ул Павлюхина 99 б","ulitsa Pavlyukhina, 99Б",55.767398,49.150952
845939,"г Казань, ул Криворожская 18","Krivorozhskaya ulitsa, 16",55.829669,48.868172
846225,"г Казань, ул Зур Урам 7","ulitsa Zur Uram, 7",55.806059,49.197512
846433,"г Казань, ул Побежимова 32 Б","ulitsa Pobezhimova, 32",55.859529,49.083255
846679,"г Казань, ул Краснококшайская 150/2","Krasnokokshayskaya ulitsa, 150/2",55.817866,49.064157
847852,"г Казань, ул Братьев Касимовых 11","Bratyev Kasimovykh Street, 11",55.756391,49.179645
851088,"г Казань, ул Адоратского 12","Adoratskogo Street, 12",55.831853,49.148482
851621,"г Казань, ул Азина (Киндери) 79","Azina Street, 79",55.874077,49.248267
851624,"г Казань, ул Четаева 1","Chetaeva Street, 1",55.824182,49.142122
851780,"г Казань, пр-кт Ямашева 101","Yamasheva Avenue, 101",55.824344,49.152471
851794,"г Казань, ул Фрунзе 9","ulitsa Frunze, 9",55.82351,49.047871
851880,"г Казань, ул Пестеля 29","ulitsa Pestelya, 31",55.86939,49.034603
851916,"г Казань, ул Белинского 13","Belinskiy Street, 13",55.853936,49.072116
852053,"г Казань, ул Космонавтов 1","ulitsa Kosmonavtov, 1",55.802229,49.186885
852290,"г Казань, ул Рихарда Зорге 70","Richarda Zorge Street, 70",55.746689,49.212855
852300,"г Казань, ул Черноморская 9","Chernomorskaya ulitsa, 9",55.820683,49.102147
852357,"г Казань, пр-кт Победы 141","Pobedy Avenue, 141",55.780957,49.213125
852501,"г Казань, ул Адоратского 3а","Adoratskogo Street, 3А",55.821942,49.145724
852598,"г Казань, ул Курская 6","Kurskaya ulitsa, 6",55.789456,49.174255
852637,"г Казань, ул Гвардейская ",Gvardeyskaya ulitsa,55.778203,49.173464
852665,"г Казань, ул Новаторов 1 б","ulitsa Novatorov, 1Б",55.802194,49.179887
852867,"г Казань, ул Академика Сахарова 18","Akademika Sakharova Street, 18",55.782861,49.227309
853291,"г Казань, ул Артиллерийская 1/48","Artilleriyskaya Street, 1/48",55.811594,49.19002
853749,"г Казань, ул Чистопольская 75","Chistopolskaya Street, 75",55.820349,49.149641
854926,"г Казань, пр-кт Победы 20","Pobedy Avenue, 20",55.739483,49.1978
856525,"г Казань, ул Академика Губкина 11","Akademika Gubkina Street, 11",55.805224,49.189921
857512,"г Казань, ул Олега Кошевого 14","ulitsa Olega Koshevogo, 14",55.855522,49.096254
858207,"г Казань, ул Адоратского 57","Adoratskogo Street, 57",55.84258,49.146533
858213,"г Казань, ул Малая Заречная 18","Malaya Zarechnaya ulitsa, 18",55.880111,49.093424
858425,"г Казань, ул Карагандинская 6а","Karagandinskaya ulitsa, 6А",55.862651,49.075117
858433,"г Казань, ул Дубравная 65","Dubravnaya ulitsa, 65",55.740254,49.207295
858462,"г Казань, ул Ново-Азинская 35","Novo-Azinskaya Street, 35",55.81168,49.196012
858549,"г Казань, пр-кт Ямашева 28","Yamasheva Avenue, 28",55.827747,49.095401
858561,"г Казань, ул Хусаина Мавлютова 44","ulitsa Khusaina Mavlyutova, 44",55.748224,49.18702
858599,"г Казань, пр-кт Фатыха Амирхана 12","Fatykha Amirkhana Street, 12",55.831974,49.135016
858678,"г Казань, ул Хусаина Мавлютова 40","ulitsa Khusaina Mavlyutova, 40",55.746791,49.188062
858871,"г Казань, ул Ново-Азинская 12","Novo-Azinskaya Street, 12",55.813344,49.19674
858964,"г Казань, ул Адоратского 27 б","Adoratskogo Street, 27Б",55.837237,49.14506
859049,"г Казань, ул Чингиза Айтматова 10","ulitsa Chingiza Aytmatova, 10",55.764855,49.235214
859113,"г Казань, Н.Назарбаева 60",City of Kazan,55.798551,49.106324
859561,"г Казань, ул Кул Гали 36","ulitsa Kul Gali, 36",55.749674,49.247261
859751,"г Казань, ул Муромская 2-я 61","2-ya Muromskaya ulitsa, 61",55.872698,49.02615
859792,"г Казань, ул Гагарина 49","ulitsa Gagarina, 49",55.838349,49.104078
860421,"г Казань, ул Советская (Константиновка) 77 А","Sovetskaya ulitsa, 77А",55.811012,49.258005
860432,"г Казань, ул Маршала Чуйкова 54","ulitsa Marshala Chuykova, 54",55.835104,49.137774
860462,"г Казань, ул Гаражная 2-я 4","2-ya Garazhnaya ulitsa, 4",55.744161,49.108705
860524,"г Казань, ул Татарстан ",Tatarstan Street,55.779013,49.110753
862017,"г Казань, пр-кт Победы 18Б","Pobedy Avenue, 18Б",55.74107,49.194979
862280,"г Казань, пр-кт Фатыха Амирхана 71","Fatykha Amirkhana Street, 71",55.834451,49.132609
863793,"г Казань, ул Офицерская 1А","Ofitserskaya ulitsa, 1",55.75134,49.178746
863850,"г Казань, тракт Сибирский 13","Sibirskiy trakt, 13",55.807526,49.181756
864149,"г Казань, ул Академика Завойского 22","Akademika Zavoyskogo Street, 22",55.757435,49.23702
864429,"г Казань, пр-кт Победы 45","Pobedy Avenue, 45",55.755611,49.215757
864447,"г Казань, ул Братьев Касимовых 3","Bratyev Kasimovykh Street, 11",55.756391,49.179645
864469,"г Казань, ул Галактионова 6","Galaktionova Street, 6",55.792706,49.12633
864535,"г Казань, ул Меридианная 4","Meridiannaya Street, 4",55.817168,49.117903
864552,"г Казань, ул Ипподромная 29","Ippodromnaya Street, 29",55.770922,49.145554
864588,"г Казань, ул Рихарда Зорге 13  А","Richarda Zorge Street, 13А",55.759111,49.191224
864636,"г Казань, ул Адоратского 31","Adoratskogo Street, 31",55.839673,49.145733
864687,"г Казань, ул Латышских Стрелков 41","ulitsa Latyshskikh Strelkov, 41",55.756498,49.166754
864744,"г Казань, ул Меридианная 7","Meridiannaya Street, 7",55.820915,49.115361
865248,"г Казань, ул Право-Булачная 43/1","Pravo-Bulachnaya Street, 43/1",55.788292,49.113726
865432,"г Казань, ул Моторная 11","Motornaya ulitsa, 11",55.770877,49.159576
865502,"г Казань, ул Тихорецкая 6а","Tikhoretskaya ulitsa, 6А",55.73259,49.124264
865512,"г Казань, ул Шуртыгина 7","ulitsa Shurtygina, 7",55.791268,49.176554
865549,"г Казань, ул Большая Красная 1а","Bolshaya Krasnaya Street, 1А",55.799097,49.111777
865582,"г Казань, ул Бондаренко 15","Bondarenko Street, 15",55.823661,49.104483
865616,"г Казань, ул Чайковского 19","ulitsa Chaykovskogo, 19",55.865546,49.104051
865776,"г Казань, ул Маршала Чуйкова 27а","ulitsa Marshala Chuykova, 27А",55.836585,49.125117
865831,"г Казань, ул Восстания 79","ulitsa Vosstaniya, 79",55.83252,49.06484
865847,"г Казань, ул Мира ",ulitsa Mira,55.798212,49.267096
865894,"г Казань, ул Павлюхина 103","ulitsa Pavlyukhina, 103",55.765473,49.150189
865949,"г Казань, ул Профессора Камая 12","ulitsa Professora Kamaya, 12",55.748356,49.184325
865976,"г Казань, ул Космонавтов 6а","ulitsa Kosmonavtov, 6А",55.800094,49.186229
866021,"г Казань, ул Максимова 5","ulitsa Maksimova, 5",55.860605,49.093146
866042,"г Казань, ул Светлая 19","Svetlaya ulitsa, 19",55.822847,49.042229
866118,"г Казань, ул Академика Арбузова 48","Akademika Arbuzova Street, 48",55.811027,49.198294
866137,"г Казань, ул Адоратского 35а","Adoratskogo Street, 35А",55.841695,49.14285
866169,"г Казань, ул Патриса Лумумбы 54","ulitsa Patrisa Lumumby, 54",55.796086,49.188619
866283,"г Казань, ул Белинского 21Б","Belinskiy Street, 21Б",55.85196,49.070634
866473,"г Казань, ул Рихарда Зорге 38","Richarda Zorge Street, 38",55.755044,49.196901
866622,"г Казань, ул Серова 35","Serova Street, 35",55.826114,49.068721
866739,"г Казань, ул Рихарда Зорге 28","Richarda Zorge Street, 28",55.756103,49.196856
866806,"г Казань, ул Большая 4","Bolshaya Street, 4",55.797554,49.066699
866834,"г Казань, ул Привокзальная 48","Privokzalnaya ulitsa, 48",55.814558,48.909315
866863,"г Казань, ул Рихарда Зорге 49","Richarda Zorge Street, 49",55.753691,49.206127
866962,"г Казань, ул Успенского 93","ulitsa Uspenskogo, 95",55.882702,49.062576
866971,"г Казань, ул Малая Крыловка 27","ulitsa Malaya Krylovka, 27",55.820051,49.076293
867194,"г Казань, ул Коммунаров 2","ulitsa Kommunarov, 2",55.819358,49.078324
867851,"г Казань, ул Шамиля Усманова 6","ulitsa Shamilya Usmanova, 6",55.830098,49.077398
868057,"г Казань, ул Маршальская 4 ч/с","Marshalskaya ulitsa, 4",55.766076,49.161454
868126,"г Казань, ул Академика Лаврентьева 10","Akademika Lavrentyeva Street, 10",55.831226,49.144889
869518,"г Казань, ул Бирюзовая 8","Biryuzovaya ulitsa, 8",55.820384,48.890234
869620,"г Казань, ул Закиева 15","Zakieva Street, 15",55.776492,49.228513
869674,"г Казань, ш Горьковское ",Gorkovskoye shosse,55.834937,48.979338
869824,"г Казань, ул Рихарда Зорге 82","Richarda Zorge Street, 82",55.745443,49.214966
869898,"г Казань, ул Гаврилова 48","Gavrilova Street, 48",55.840341,49.156253
869921,"г Казань, ул Шарифа Камала 12","Sharifa Kamala Street, 12",55.767565,49.10936
869980,"г Казань, ул Олега Кошевого 10","ulitsa Olega Koshevogo, 10",55.855179,49.093748
870120,"г Казань, ул Вишневского 51","Vishnevskiy Street, 51/1",55.784197,49.150683
870165,"г Казань, ул Академика Завойского 14","Akademika Zavoyskogo Street, 14/74",55.757217,49.233049
870169,"г Казань, ул Хусаина Мавлютова 19","ulitsa Khusaina Mavlyutova, 19",55.749699,49.190784
870404,"г Казань, ул Широкая 2","Shirokaya ulitsa, 2",55.802518,49.069888
870456,"г Казань, пр-кт Фатыха Амирхана 4","Fatykha Amirkhana Street, 4А",55.829042,49.136004
870532,"г Казань, ул Ярослава Гашека 1","ulitsa Yaroslava Gasheka, 1",55.838283,49.10883
870570,"г Казань, ул Гагарина 81","ulitsa Gagarina, 81",55.837338,49.089077
870580,"г Казань, ул Гарифьянова 34","ulitsa Garifyanova, 34",55.75129,49.201096
870615,"г Казань, ул Ново-Аракчинская 5","Novo-Arakchinskaya ulitsa, 3",55.812479,48.938564
870660,"г Казань, ул Ноксинский Спуск 24","ulitsa Noksinskiy Spusk, 24",55.768385,49.242149
870799,"г Казань, ул Хороводная 50","Khorovodnaya ulitsa, 50",55.782041,49.159801
870986,"г Казань, ул Братьев Касимовых 22/7","Bratyev Kasimovykh Street, 22/7",55.756189,49.190496
871025,"г Казань, ул Главная 69А","Glavnaya ulitsa, 69А",55.865925,49.217509
871039,"г Казань, ул Октябрьская 36","Oktyabrskaya ulitsa, 36",55.841776,49.095742
871049,"г Казань, ул Железнодорожников 27/33","ulitsa Zheleznodorozhnikov, 27/33",55.822068,48.896433
871056,"г Казань, ул Адмиралтейская 7","Admiralteyskaya Street, 7",55.801627,49.055246
871068,"г Казань, ул Пушкина 21","Pushkina Street, 21",55.789664,49.124012
871076,"г Казань, ул Братьев Касимовых 30","Bratyev Kasimovykh Street, 30",55.755469,49.193335
871191,"г Казань, ул Заслонова 40","Zaslonova Street, 40",55.779833,49.151545
871205,"г Казань, тракт Сибирский ",Sibirskiy trakt,55.827762,49.189885
871211,"г Казань, ул Наки Исанбета 57","ulitsa Naki Isanbeta, 57",55.783868,49.175459
871231,"г Казань, с Константиновка, ул Интернациональная 34","Internatsionalnaya ulitsa, 34",55.807041,49.270123
871373,"г Казань, ул Волгоградская 22","Volgogradskaya ulitsa, 22",55.832227,49.092625
871403,"г Казань, пер Дружный 28","Druzhny pereulok, 28",55.809009,48.918064
871414,"г Казань, тракт Сибирский 24","Sibirskiy trakt, 24/7",55.81257,49.181495
871627,"г Казань, пр-кт Ибрагимова 44","Ibragimova Avenue, 44",55.824632,49.093344
873227,"г Казань, пер Односторонки Гривки 10","pereulok Odnostoronki Grivki, 10",55.812707,49.089615
873233,"г Казань, ул Ютазинская 16","Yutazinskaya ulitsa, 16",55.841407,49.034621
873238,"г Казань, ул Адоратского 44","Adoratskogo Street, 44",55.841433,49.148123
873248,"г Казань, ул Маршала Чуйкова 48","ulitsa Marshala Chuykova, 48",55.834219,49.129339
873301,"г Казань, ул Малая Армавирская 112","Malaya Armavirskaya ulitsa, 112",55.878884,49.067885
873334,"г Казань, ул Короленко 35а","Korolenko Street, 35А",55.828657,49.100234
873351,"г Казань, ул Лукина 17","ulitsa Lukina, 17",55.864212,49.091601
873419,"г Казань, ул Четаева 33","Chetaeva Street, 33",55.823818,49.122781
873466,"г Казань, ул 25 Октября 16/9","ulitsa 25 Oktyabrya, 16/9",55.815428,49.061417
873600,"г Казань, ул Кул Гали 3","ulitsa Kul Gali, 3",55.754598,49.22439
873638,"г Казань, ул Петербургская 64","Peterburgskaya Street, 64",55.778887,49.136714
873667,"г Казань, ул Фрунзе 1","ulitsa Frunze, 1",55.825416,49.043855
873674,"г Казань, ул Сибгата Хакима 43","Sibgata Khakima Street, 43",55.817355,49.139472
873769,"г Казань, ул Тихогорская 7","Tikhogorskaya ulitsa, 7",55.775778,49.149003
873823,"г Казань, пр-кт Победы 178а","Pobedy Avenue, 178А",55.790195,49.221039
873946,"г Казань, ул Академика Губкина 5","Akademika Gubkina Street, 5",55.804086,49.187936
874268,"г Казань, ул Клары Цеткин 17 б","Klary Tsetkin Street, 17Б",55.798191,49.057725
874421,"г Казань, ул Солидарности (Дербышки) 21","ulitsa Solidarnosti, 21",55.859883,49.231217
874535,"г Казань, ул Родины 1","Rodiny Street, 1",55.760768,49.192482
874562,"г Казань, ул Декабристов 178а","Dekabristov Street, 178А",55.838238,49.082689
874629,"г Казань, ул Павлюхина 100","ulitsa Pavlyukhina, 100",55.771109,49.141664
874943,"г Казань, ул Дубравная 27","Dubravnaya ulitsa, 27",55.741039,49.213924
874946,"г Казань, ул Белинского 41","Belinskiy Street, 41",55.852733,49.069871
874975,"г Казань, ул Маршала Чуйкова 42","ulitsa Marshala Chuykova, 42",55.834512,49.128342
875007,"г Казань, ул Латышских Стрелков 29","ulitsa Latyshskikh Strelkov, 29",55.757328,49.165676
875069,"г Казань, ул Новоселья 4","ulitsa Novoselya, 4",55.781165,49.239616
875082,"г Казань, ул Центральная (Салмачи) 176 в","Tsentralnaya ulitsa, 176В",55.737968,49.29957
875214,"г Казань, ул Урицкого 4","Uritskogo Street, 4",55.802239,49.056513
875476,"г Казань, ул Карбышева 32","ulitsa Karbysheva, 32",55.765453,49.177623
875534,"г Казань, ул Магистральная ",Magistralnaya Street,55.736255,49.10027
875981,"г Казань, ул Декабристов 129","Dekabristov Street, 129",55.826756,49.083426
877093,"г Казань, ул Кулахметова 5","ulitsa Kulakhmetova, 5",55.823358,49.051293
877107,"г Казань, ул Гаврилова 20","Gavrilova Street, 20",55.833188,49.158085
877287,"г Казань, ул Мусина 59Б","Musina Street, 59Б",55.827843,49.121443
877355,"г Казань, ул Спартаковская 1","Spartakovskaya Street, 1",55.782101,49.126815
877390,"г Казань, пер Пожарского 103Б",pereulok Pozharskogo,55.873132,49.037387
877443,"г Казань, пр-кт Фатыха Амирхана 109","Fatykha Amirkhana Street, 109",55.841968,49.129213
877502,"г Казань, ул Чехова 4","Chekhova Street, 4",55.791258,49.147242
877511,"г Казань, пр-кт Ибрагимова 54","Ibragimova Avenue, 54",55.82222,49.092921
877536,"г Казань, ул Комиссара Габишева 29","ulitsa Komissara Gabisheva, 29",55.755186,49.238161
877549,"г Казань, ул Оренбургский тракт ",Orenburgskiy trakt,55.740781,49.177237
877664,"г Казань, ул Гаврилова 30","Gavrilova Street, 30",55.836974,49.158453
877792,"г Казань, пр-кт Фатыха Амирхана 101","Fatykha Amirkhana Street, 101",55.842176,49.132456
877795,"г Казань, ул Академика Кирпичникова 15","Akademika Kirpichnikova Street, 15",55.810749,49.184406
877862,"г Казань, ул Абсалямова 31","Absalyamova Street, 31",55.823095,49.109621
877869,"г Казань, пр-кт Ибрагимова 81А","Ibragimova Avenue, 81А",55.823065,49.097736
878020,"г Казань, ул Декабристов 164/91","Dekabristov Street, 164",55.836373,49.081333
878051,"г Казань, ул Карима Тинчурина 1","Karima Tinchurina Street, 1",55.779793,49.103719
878054,"г Казань, ул Правды (Дербышки) 11","ulitsa Pravdy, 11",55.866793,49.2258
878092,"г Казань, ул Привокзальная 48","Privokzalnaya ulitsa, 48",55.814558,48.909315
878144,"г Казань, ул Карпатская 21","Karpatskaya ulitsa, 19",55.850055,48.885626
878176,"г Казань, ул Гудованцева 22А","ulitsa Gudovantseva, 22А",55.869238,49.022691
878203,"г Казань, ул Минская 40","Minskaya Street, 40",55.771666,49.237676
878236,"г Казань, ул Девятаева 1","Devyataeva Street, 1",55.774406,49.092697
878284,"г Казань, ул Пермская 2-я 26","2-ya Permskaya ulitsa, 26",55.878132,49.033722
878293,"г Казань, городок Военный 32 182","Voyenny gorodok-32, 32А",55.805442,48.963663
878322,"г Казань, ул Кленовая 3-я 23","3-ya Klenovaya ulitsa, 23",55.872021,49.240173
878336,"г Казань, ул Восход 16","Voskhod Street, 16",55.832303,49.073895
878412,"г Казань, тракт Сибирский 35","Sibirskiy trakt, 35",55.820521,49.179061
878422,"г Казань, ул Хади Такташа 127","Khadi Taktasha Street, 127",55.765691,49.136022
878432,"г Казань, ул Побежимова ",ulitsa Pobezhimova,55.860464,49.076401
878594,"г Казань, ул Зур Урам 9А","ulitsa Zur Uram, 9А",55.806449,49.196488
878620,"г Казань, ул Олега Кошевого 4А","ulitsa Olega Koshevogo, 4А",55.855174,49.090253
878638,"г Казань, ул Рихарда Зорге 21","Richarda Zorge Street, 21",55.758752,49.182052
878647,"г Казань, ул Мира 30","ulitsa Mira, 30",55.86306,49.21891
878656,"г Казань, пер Шоссейный 7","Shosseyny pereulok, 7",55.809459,49.081854
878670,"г Казань, пр-кт Ибрагимова 11","Ibragimova Avenue, 11",55.840366,49.089103
878706,"г Казань, ул Лукина 41","ulitsa Lukina, 41",55.869076,49.093721
878714,"г Казань, ул Академика Завойского 16","Akademika Zavoyskogo Street, 16",55.756624,49.235035
879127,"г Казань, ул Шоссейная 15А","Shosseynaya Street, 15А",55.809302,49.07897
880842,"г Казань, ул Рихарда Зорге 89","Richarda Zorge Street, 89",55.746877,49.215443
880984,"г Казань, ул Молодежная 6","Molodyozhnaya ulitsa, 6",55.862201,49.101258
881172,"г Казань, ул Галимджана Баруди 9","ulitsa Galimdzhana Barudi, 9",55.820936,49.065613
881181,"г Казань, ул Фрунзе 1","ulitsa Frunze, 1",55.825416,49.043855
881192,"г Казань, тер Деревня Универсиады 16","territoriya Derevnya Universiady, 16",55.742787,49.182897
881308,"г Казань, ул Космонавтов 10","ulitsa Kosmonavtov, 10",55.800261,49.188843
881347,"г Казань, ул Кулахметова ",ulitsa Kulakhmetova,55.826635,49.05618
881404,"г Казань, ул Вересаева 84","ulitsa Veresayeva, 84",55.882777,49.08701
881607,"г Казань, ул Хайдара Бигичева 29","ulitsa Khaydara Bigicheva, 29",55.791364,49.224632
881664,"г Казань, пр-кт Ямашева 17","Yamasheva Avenue, 17",55.826534,49.099398
881666,"г Казань, ул Хусаина Мавлютова ",ulitsa Khusaina Mavlyutova,55.751741,49.189032
881743,"г Казань, ул Юлиуса Фучика 42а","ulitsa Yuliusa Fuchika, 42А",55.746573,49.221353
881767,"г Казань, ул Рихарда Зорге 100","Richarda Zorge Street, 100",55.741733,49.221183
881847,"г Казань, ул Тунакова 66","ulitsa Tunakova, 66",55.836074,49.084558
881860,"г Казань, ул Декабристов 203","Dekabristov Street, 203",55.839532,49.080471
882031,"г Казань, пр-кт Ямашева 49","Yamasheva Avenue, 49",55.826124,49.122036
882178,"г Казань, ул Краснококшайская 176","Krasnokokshayskaya ulitsa, 176",55.821699,49.056135
882265,"г Казань, ул Беломорская 6","Belomorskaya Street, 6",55.86454,49.085923
882294,"г Казань, ул Восстания 20","ulitsa Vosstaniya, 20",55.83527,49.091789
882324,"г Казань, ул Побежимова 57а","ulitsa Pobezhimova, 57А",55.859852,49.073679
882374,"г Казань, ул Хусаина Мавлютова 32","ulitsa Khusaina Mavlyutova, 32",55.751209,49.186068
882383,"г Казань, ул Баумана 13","Baumana Street, 13",55.791992,49.112837
882577,"г Казань, пр-кт Ибрагимова 30 а","Ibragimova Avenue, 30А",55.832647,49.088241
882603,"г Казань, ул Адоратского 33","Adoratskogo Street, 33",55.840897,49.146784
882652,"г Казань, ул Юлиуса Фучика 92","ulitsa Yuliusa Fuchika, 92",55.764729,49.233229
884195,"г Казань, ул Хади Такташа 1","Khadi Taktasha Street, 1",55.78037,49.131387
884758,"г Казань, ул Давликеевская 4-я 34","4-ya Davlikeyevskaya ulitsa, 34",55.69869,49.151806
884762,"г Казань, ул Восстания 22","ulitsa Vosstaniya, 22",55.835938,49.091718
884804,"г Казань, ул Беломорская 244","Belomorskaya Street, 244",55.867728,49.018595
884894,"г Казань, ул Халезова 13","ulitsa Khalezova, 13",55.866697,49.221937
885004,"г Казань, ул Глазунова 29А","ulitsa Glazunova, 27А",55.730821,49.144538
885182,"г Казань, ул Качалова 84","ulitsa Kachalova, 84",55.773064,49.146757
885230,"г Казань, ул Серова 2","Serova Street, 2",55.827317,49.059405
885329,"г Казань, ул Декабристов 83","Dekabristov Street, 83",55.816662,49.091152
885340,"г Казань, ул Шатурская 40","Shaturskaya ulitsa, 40",55.867662,49.072898
885348,"г Казань, ул Черноморская 5","Chernomorskaya ulitsa, 5",55.820556,49.100701
885380,"г Казань, ул Академика Сахарова ",Akademika Sakharova Street,55.782193,49.226204
885477,"г Казань, ул Ленинградская 22","Leningradskaya ulitsa, 22",55.861757,49.085591
885490,"г Казань, ул Залесная 1Г","Zalesnaya ulitsa, 1Г",55.847174,48.910429
885589,"г Казань, ул Клары Цеткин 34","Klary Tsetkin Street, 34",55.797989,49.049092
885649,"г Казань, ул Кул Гали 32","ulitsa Kul Gali, 32",55.750054,49.244458
885669,"г Казань, ул Ленская 2","Lenskaya Street, 2",55.824754,49.084953
885816,"г Казань, ул Гаврилова 18","Gavrilova Street, 18",55.832227,49.15804
885864,"г Казань, пр-кт Победы 19","Pobedy Avenue, 19",55.748569,49.20345
885899,"г Казань, пгт Воровского 3",City of Kazan,55.798551,49.106324
885909,"г Казань, ул Привольная 2-я 22","2nd Privolnaya Street, 22",55.779206,49.143173
885919,"г Казань, ул Хибинская 8","Khibinskaya ulitsa, 8",55.846295,48.903467
885941,"г Казань, ул Азинская 2-я ",2nd Azinskaya Street,55.806818,49.203594
885984,"г Казань, пр-кт Победы 139","Pobedy Avenue, 139к1",55.777125,49.2167
886053,"г Казань, ул Восстания 129","ulitsa Vosstaniya, 129",55.830129,49.048419
886064,"г Казань, пр-кт Фатыха Амирхана 95","Fatykha Amirkhana Street, 95",55.842135,49.130076
886292,"г Казань, ул Литвинова 55","ulitsa Litvinova, 55",55.877339,49.06298
886299,"г Казань, ул Химиков 63","ulitsa Khimikov, 63",55.878814,49.017714
886320,"г Казань, ул Михаила Худякова ",Mikhaila Khudyakova Street,55.783554,49.111615
886328,"г Казань, ул Адоратского 10","Adoratskogo Street, 10",55.830695,49.148231
886347,"г Казань, с Константиновка, ул Амурская 34","Amurskaya Street, 34",55.804273,49.284388
886703,"г Казань, пр-кт Победы 91","Pobedy Avenue, 91",55.768355,49.217176
888115,"г Казань, ул Гудованцева 33","ulitsa Gudovantseva, 33",55.872056,49.020131
888140,"г Казань, ул Спартаковская 121","Spartakovskaya Street, 121",55.772669,49.145068
888341,"г Казань, ул Дементьева 33а","ulitsa Dementyeva, 33А",55.860342,49.100728
888434,"г Казань, ул Бадаева 18а","Badayeva Street, 18А",55.875051,49.043352
888458,"г Казань, пр-кт Победы 100","Pobedy Avenue, 100",55.768891,49.220832
888490,"г Казань, ул Маршала Чуйкова 27а","ulitsa Marshala Chuykova, 27А",55.836585,49.125117
888517,"г Казань, ул Дубравная 9","Dubravnaya ulitsa, 9",55.739914,49.218551
888549,"г Казань, ул Аделя Кутуя 44а","Adelya Kutuya Street, 44А",55.78646,49.173833
888554,"г Казань, ул Габдуллы Тукая 75Г","Gabdully Tukaya Street, 75Г",55.777758,49.117248
888608,"г Казань, ул Бондаренко 3 б","Bondarenko Street, 3Б",55.832298,49.104123
888616,"г Казань, городок Военный 32 3","Voyenny gorodok-32, 32А",55.805442,48.963663
888744,"г Казань, ул Петербургская 9","Peterburgskaya Street, 9",55.785321,49.126545
888977,"г Казань, ул Лукина 16","ulitsa Lukina, 16",55.863323,49.093694
889212,"г Казань, ул Боевая 145а","Boyevaya Street, 145А",55.800853,49.005003
889244,"г Казань, ул Четаева 14а","Chetaeva Street, 14А",55.822741,49.143083
889309,"г Казань, ул Маршала Чуйкова ",ulitsa Marshala Chuykova,55.835907,49.131064
889328,"г Казань, ул Достоевского 66/17","Dostoevskogo Street, 66/17",55.787401,49.15548
889503,"г Казань, ул Сафиуллина 8","Safiullina Street, 8",55.753012,49.218048
889505,"г Казань, ул Академика Парина 8","Akademika Parina Street, 8",55.745362,49.186822
890100,"г Казань, ул Баки Урманче 1","Baki Urmanche Street, 1",55.733411,49.179258
890225,"г Казань, ул Галактионова 3А","Galaktionova Street, 3А",55.793515,49.12615
891293,"г Казань, ул Чапаева 11/43","ulitsa Chapayeva, 11/43",55.862318,49.080866
891321,"г Казань, ул Юлиуса Фучика 72","ulitsa Yuliusa Fuchika, 72",55.755844,49.232358
891394,"г Казань, ул Коллективная 29","Kollektivnaya ulitsa, 29",55.834199,49.094179
891403,"г Казань, ул Дружинная 7","Druzhinnaya ulitsa, 7",55.817967,49.082034
891490,"г Казань, тракт Сибирский ",Sibirskiy trakt,55.827762,49.189885
891676,"г Казань, ул Сафиуллина 10","Safiullina Street, 10",55.752663,49.218641
891692,"г Казань, ул Профессора Камая 15","ulitsa Professora Kamaya, 15",55.751432,49.183948
891720,"г Казань, ул Фатыха Карима 97",Fatykha Karima Street,55.778234,49.115415
891723,"г Казань, ул Юлиуса Фучика 52","ulitsa Yuliusa Fuchika, 52",55.752232,49.232816
891811,"г Казань, ул Ломжинская 3","Lomzhinskaya Street, 3",55.767306,49.223689
891841,"г Казань, ул Спартаковская 165","Spartakovskaya Street, 165",55.768927,49.153064
891902,"г Казань, ул Северополюсная 30","Severopolyusnaya ulitsa, 30",55.871486,49.078602
891961,"г Казань, ул Комиссара Габишева 25","ulitsa Komissara Gabisheva, 25",55.752962,49.239922
892012,"г Казань, ул Декабристов 85","Dekabristov Street, 85",55.818589,49.090343
892362,"г Казань, ул Березовая 25А","Beryozovaya Street, 25",55.710098,49.182106
892391,"г Казань, ул Серова 19","Serova Street, 19",55.827307,49.064445
892537,"г Казань, ул Яшь кыч 1Г","ulitsa Yash Kych, 1Г",55.751852,49.106585
892544,"г Казань, пр-кт Победы 46Б","Pobedy Avenue, 46Б",55.746851,49.206855
892556,"г Казань, ул Побежимова 57","ulitsa Pobezhimova, 57",55.860403,49.073976
892615,"г Казань, ул Большая Красная 8","Bolshaya Krasnaya Street, 8",55.798287,49.111319
892664,"г Казань, ул Япеева ",Yapeeva Street,55.799143,49.115963
892745,"г Казань, ул Гвардейская 44","Gvardeyskaya ulitsa, 44",55.780411,49.17103
892810,"г Казань, ул Четаева 33","Chetaeva Street, 33",55.823818,49.122781
892823,"г Казань, ул Шаляпина 45","Shalyapina Street, 45",55.769459,49.141089
892826,"г Казань, ул Четаева 33","Chetaeva Street, 33",55.823818,49.122781
893041,"г Казань, ул Местная 14А","Mestnaya ulitsa, 14А",55.745615,49.170697
893053,"г Казань, ул Николая Ершова 53","Nikolay Ershov Street, 53",55.797559,49.176096
893125,"г Казань, ул Нариманова 72","Narimanova Street, 72/52",55.779312,49.110286
894886,"г Казань, ул Николая Ершова 1А","Nikolay Ershov Street, 1А",55.7939,49.149506
895030,"г Казань, ул Ботаническая 16","Botanicheskaya ulitsa, 16",55.766638,49.138214
895263,"г Казань, ул Муштари 19а","Mushtari Street, 19А",55.791339,49.1341
895345,"г Казань, ул Юлиуса Фучика 48","ulitsa Yuliusa Fuchika, 48",55.747272,49.226007
895375,"г Казань, пр-кт Ибрагимова 12","Ibragimova Avenue, 12",55.839117,49.086786
895529,"г Казань, пр-кт Победы 141","Pobedy Avenue, 141",55.780957,49.213125
895592,"г Казань, ул Чистопольская 49","Chistopolskaya Street, 49",55.820491,49.127057
895604,"г Казань, ул Дубравная (Вознесенское) 2","Dubravnaya ulitsa, 2",55.739924,49.224129
895868,"г Казань, ул Ломжинская 2","Lomzhinskaya Street, 2",55.765974,49.222108
896097,"г Казань, ул Транспортная (Аки) 11","Transportnaya ulitsa, 11",55.840007,49.117463
896233,"г Казань, ул Адоратского 9","Adoratskogo Street, 9",55.823813,49.145015
896299,"г Казань, с Чебакса, ул Советская 9","Sovetskaya ulitsa, 9",55.817011,49.268245
896484,"г Казань, ул Сибгата Хакима 37","Sibgata Khakima Street, 37",55.81737,49.137208
896602,"г Казань, ул Кул Гали 9/95","ulitsa Kul Gali, 9/95",55.752511,49.227237
896906,"г Казань, ул Маршала Чуйкова 83","ulitsa Marshala Chuykova, 83",55.836984,49.153046
897629,"г Казань, ул Товарищеская 31Б","Tovarishcheskaya ulitsa, 31Б",55.78402,49.156262
898770,"г Казань, ул Четаева 25","Chetaeva Street, 25",55.823854,49.129968
898779,"г Казань, ул Генерала Кобякова 22","ulitsa Generala Kobyakova, 22",55.733873,49.237568
898810,"г Казань, ул Баки Урманче 5","Baki Urmanche Street, 5",55.732124,49.177129
898832,"г Казань, ул Академика Павлова 13","Akademika Pavlova Street, 13",55.864667,49.100234
898964,"г Казань, ул Гудованцева 15","ulitsa Gudovantseva, 15",55.864252,49.019295
898984,"г Казань, ул Владимира Кулагина 1","Vladimira Kulagina Street, 1",55.741419,49.142499
899006,"г Казань, ул Академика Парина 16","Akademika Parina Street, 16",55.745149,49.184109
899017,"г Казань, ул Братьев Касимовых 46","Bratyev Kasimovykh Street, 46",55.75551,49.205489
899026,"г Казань, ул Адоратского 47","Adoratskogo Street, 47",55.841791,49.139831
899077,"г Казань, ул Маршала Чуйкова 9","ulitsa Marshala Chuykova, 9",55.836302,49.109235
899151,"г Казань, тракт Сибирский 9/5","Sibirskiy trakt, 9/5",55.806009,49.18348
899273,"г Казань, пр-кт Победы 78","Pobedy Avenue, 78",55.763802,49.220608
899289,"г Казань, ул Декабристов 85Г","Dekabristov Street, 85Г",55.819196,49.091646
899349,"г Казань, ул Декабристов 178А","Dekabristov Street, 178А",55.838238,49.082689
899366,"г Казань, ул Кирпичная 1","Kirpichnaya ulitsa, 1/31",55.782086,49.166215
899383,"г Казань, ул Сабан 7А","ulitsa Saban, 7А",55.826675,49.051338
899403,"г Казань, ул Зур Урам 4","ulitsa Zur Uram, 4",55.806019,49.199533
899412,"г Казань, ул Дементьева 37","ulitsa Dementyeva, 37",55.862009,49.103647
899517,"г Казань, ул Главная 60","Glavnaya ulitsa, 60",55.865707,49.222925
899587,"г Казань, ул Патриса Лумумбы 28","ulitsa Patrisa Lumumby, 28",55.793111,49.173743
899608,"г Казань, ул Красной Позиции 29В","ulitsa Krasnoy Pozitsii, 29В",55.783306,49.167041
899626,"г Казань, ул Гагарина ",ulitsa Gagarina,55.838026,49.089705
899748,"г Казань, ул Юлиуса Фучика 88","ulitsa Yuliusa Fuchika, 88",55.762014,49.232439
899828,"г Казань, ул Гаврилова 46","Gavrilova Street, 46",55.84027,49.158894
899872,"г Казань, ул Тверская 9Б","Tverskaya ulitsa, 9Б",55.824076,49.080596
899913,"г Казань, пр-кт Ямашева 97","Yamasheva Avenue, 97",55.825153,49.152417
900066,"г Казань, пр-кт Фатыха Амирхана 26","Fatykha Amirkhana Street, 26",55.839133,49.135627
900106,"г Казань, пр-кт Фатыха Амирхана 23","Fatykha Amirkhana Street, 23",55.825851,49.132744
900116,"г Казань, ул Елабужская 2-я 15","2-ya Yelabuzhskaya ulitsa, 15",55.729498,49.149003
900122,"г Казань, ул Михаила Миля ",ulitsa Mikhaila Milya,55.846482,49.108471
900143,"г Казань, ул Ленинградская 2-я 6","2-ya Leningradskaya ulitsa, 6",55.859968,49.086633
900167,"г Казань, городок Военный 33 4","Voyenny gorodok-32, 33",55.80694,48.961902
900254,"г Казань, ул Адоратского 35","Adoratskogo Street, 35",55.842125,49.145176
900302,"г Казань, ул Даурская 10","Daurskaya ulitsa, 10",55.763397,49.146209
900420,"г Казань, ул Сурикова 39","ulitsa Surikova, 39",55.773621,49.166826
900443,"г Казань, ул Односторонняя Луговая 1","Odnostoronnyaya Lugovaya ulitsa, 1",55.880015,49.086534
900458,"г Казань, ул Рихарда Зорге 76","Richarda Zorge Street, 76",55.74558,49.211481
900467,"г Казань, ул Куземетьевская 54","Kuzemetyevskaya ulitsa, 54",55.80523,48.88462
900487,"г Казань, ул Минская 52","Minskaya Street, 52",55.770547,49.242509
900512,"г Казань, ул Галиаскара Камала 45","Galiaskara Kamala Street, 45",55.780142,49.105552
902101,"г Казань, ул Декабристов 180а","Dekabristov Street, 180А",55.840315,49.083166
902103,"г Казань, пр-кт Победы 192","Pobedy Avenue, 192",55.793267,49.221668
902288,"г Казань, ул Яна Юдина 17","ulitsa Yana Yudina, 17",55.822104,48.903718
902585,"г Казань, ул Маршала Чуйкова 55","ulitsa Marshala Chuykova, 55",55.836484,49.139149
902599,"г Казань, ул Зеленая 1","Zelyonaya Street, 1",55.783742,49.145715
902618,"г Казань, пр-кт Победы 58","Pobedy Avenue, 58",55.74977,49.213062
902628,"г Казань, ул Шамиля Усманова 19","ulitsa Shamilya Usmanova, 19",55.829684,49.070661
902637,"г Казань, ул Маршала Чуйкова ",ulitsa Marshala Chuykova,55.835907,49.131064
902704,"г Казань, ул Баумана 30","Baumana Street, 30",55.79349,49.107923
902775,"г Казань, ул Баки Урманче 8","Baki Urmanche Street, 8",55.731637,49.173051
902821,"г Казань, ул Молодежная 8","Molodyozhnaya ulitsa, 8",55.862787,49.099731
902867,"г Казань, ул Ново-Азинская 35","Novo-Azinskaya Street, 35",55.81168,49.196012
902938,"г Казань, ул Ипподромная 18","Ippodromnaya Street, 18",55.772578,49.146775
902939,"г Казань, пр-кт Ямашева 76","Yamasheva Avenue, 76",55.827601,49.137298
903069,"г Казань, ул Свободы (Петровский) 1","ulitsa Svobody, 3",55.677362,49.117086
903310,"г Казань, ул Академика Губкина 39/1","Akademika Gubkina Street, 39/1",55.809666,49.1993
903439,"г Казань, ул Халезова 26","ulitsa Khalezova, 26",55.862818,49.214634
903519,"г Казань, ул Академика Арбузова 48","Akademika Arbuzova Street, 48",55.811027,49.198294
903552,"г Казань, ул Константина Симонова 6","ulitsa Simonova, 6",55.865339,49.090954
903582,"г Казань, ул Молодежная 10","Molodyozhnaya ulitsa, 10",55.862212,49.099578
903655,"г Казань, ул Школьная (Кадышево) 13","Shkolnaya ulitsa, 13",55.808437,49.260727
903678,"г Казань, ул Мало-Московская 28","Malo-Moskovskaya Street, 28",55.799927,49.054869
903783,"г Казань, ул Борисковская 94А","Boriskovskaya Street, 94А",55.723374,49.15044
904125,"г Казань, ул Меридианная ",Meridiannaya Street,55.821816,49.11573
904210,"г Казань, ул Салиха Батыева 11","ulitsa Salikha Batyyeva, 11",55.753301,49.24382
904579,"г Казань, пр-кт Ямашева 83","Yamasheva Avenue, 83",55.826114,49.142634
904819,"г Казань, ул Даурская 37","Daurskaya ulitsa, 37",55.767433,49.183543
905109,"г Казань, ул Копылова 2А","ulitsa Kopylova, 2А",55.85391,49.086795
905745,"г Казань, ул Кулахметова 18","ulitsa Kulakhmetova, 18",55.825634,49.05601
905823,"г Казань, ул Актайская 15","Aktayskaya Street, 15",55.744353,49.139553
905827,"г Казань, ул Жилякле 61",ulitsa Zhilyakle,55.757126,49.293533
905840,"г Казань, ул Тэцевская 279","Tetsevskaya ulitsa, 279",55.859221,48.972996
905918,"г Казань, ул Фрунзе 17","ulitsa Frunze, 17",55.820708,49.053988
905929,"г Казань, ул Ставропольская 18","Stavropolskaya ulitsa, 16",55.873617,49.052479
906008,"г Казань, ул Мира 1","ulitsa Mira, 1",55.866915,49.234442
906078,"г Казань, ул Кадышевская (Щербаково) 14","Kadyshevskaya ulitsa, 14",55.915619,49.149506
906136,"г Казань, ул Джаудата Файзи 10А","ulitsa Dzhaudata Fayzi, 10А",55.79392,49.223923
906290,"г Казань, ул Красной Позиции 9Б","ulitsa Krasnoy Pozitsii, 9Б",55.78978,49.167805
906297,"г Казань, ул Побежимова 36","ulitsa Pobezhimova, 36",55.860292,49.082115
906302,"г Казань, ул Дементьева 37","ulitsa Dementyeva, 37",55.862009,49.103647
906314,"г Казань, ул Воровского 7","ulitsa Vorovskogo, 7",55.843045,49.093748
906360,"г Казань, ул Академика Глушко 17","Akademika Glushko Street, 17",55.785442,49.231918
906448,"г Казань, пр-кт Победы 60","Pobedy Avenue, 60",55.750292,49.214086
906518,"г Казань, пр-кт Победы 158","Pobedy Avenue, 158",55.784526,49.220913
906558,"г Казань, ул Академика Завойского 22А","Akademika Zavoyskogo Street, 22А",55.75745,49.23552
906596,"г Казань, ул Дементьева 37","ulitsa Dementyeva, 37",55.862009,49.103647
906617,"г Казань, ул Чистопольская 26/5","Chistopolskaya Street, 5",55.819484,49.10159
906756,"г Казань, ул Юлиуса Фучика 79","ulitsa Yuliusa Fuchika, 79",55.744115,49.210232
906802,"г Казань, ул Юлиуса Фучика 100","ulitsa Yuliusa Fuchika, 100",55.770061,49.233211
907415,"г Казань, ул Адоратского 4","Adoratskogo Street, 4",55.823778,49.148015
907444,"г Казань, ул Армавирская 1-я 1А","1st Armavirskaya Street, 1/33",55.872264,49.07226
907577,"г Казань, ул Березовая 30","Beryozovaya Street, 30",55.71125,49.184621
908328,"г Казань, пр-кт Фатыха Амирхана 9","Fatykha Amirkhana Street, 7",55.822074,49.131082
909554,"г Казань, ул Мусина 71","Musina Street, 71",55.838273,49.120104
909591,"г Казань, ул Березниковская 1-я 32","1st Bereznikovskaya Street, 34",55.698142,49.131351
909702,"г Казань, ул Парковая 12","Parkovaya ulitsa, 12",55.861297,49.220653
909717,"г Казань, пр-кт Победы 224 б","Pobedy Avenue, 224Б",55.807456,49.210008
910148,"г Казань, ул Юлиуса Фучика 36","ulitsa Yuliusa Fuchika, 36",55.745118,49.220787
910209,"г Казань, ул Восстания 120","ulitsa Vosstaniya, 112",55.830584,49.047916
910373,"г Казань, ул Циолковского 79","ulitsa Tsiolkovskogo, 79",55.870324,49.099425
910410,"г Казань, ул Курчатова 8","ulitsa Kurchatova, 8",55.760398,49.173931
910483,"г Казань, пр-кт Ямашева 45","Yamasheva Avenue, 45",55.826286,49.11882
910522,"г Казань, ул Космонавтов 44","ulitsa Kosmonavtov, 44",55.795201,49.193874
910534,"г Казань, ул Софьи Перовской 150","ulitsa Sofyi Perovskoy, 150",55.870324,49.023275
910675,"г Казань, ул Космонавтов 30","ulitsa Kosmonavtov, 30",55.796982,49.190065
910853,"г Казань, тракт Мамадышский 10","Mamadyshskiy trakt, 10",55.795838,49.226007
910888,"г Казань, ул Бирюзовая 19","Biryuzovaya ulitsa, 19",55.819636,48.885464
910968,"г Казань, ул Мартына Межлаука 3","Martyna Mezhlauka Street, 3/45",55.787563,49.11051
911258,"г Казань, пр-кт Ямашева 110","Yamasheva Avenue, 110",55.828551,49.157025
911352,"г Казань, ул Восстания 67а","ulitsa Vosstaniya, 67А",55.832439,49.068334
911363,"г Казань, ул Рауиса Гареева 92","ulitsa Rauisa Gareyeva, 92",55.722532,49.171497
911372,"г Казань, ул Карла Маркса 74","Karla Marksa Street, 74",55.793839,49.143946
912050,"г Казань, ул Газовая 2-я 5","2nd Gazovaya Street, 5",55.770406,49.152776
912508,"г Казань, ул Федосеевская 54","Fedoseevskaya Street, 54",55.802153,49.119089
913294,"г Казань, ул Гарифьянова 4","ulitsa Garifyanova, 4",55.750636,49.193973
913481,"г Казань, ул Красной Позиции ",ulitsa Krasnoy Pozitsii,55.788429,49.164831
913500,"г Казань, ул Цветочная (Вознесенское) 4","Tsvetochnaya ulitsa, 4",55.766557,49.251366
913546,"г Казань, ул Черноплодная 11","Chernoplodnaya ulitsa, 11",55.745762,49.298375
913584,"г Казань, ул Минская 52","Minskaya Street, 52",55.770547,49.242509
913615,"г Казань, ул Хусаина Мавлютова 2","ulitsa Khusaina Mavlyutova, 2",55.758676,49.187217
913653,"г Казань, пр-кт Победы 91","Pobedy Avenue, 91",55.768355,49.217176
914006,"г Казань, ул Рихарда Зорге ",Richarda Zorge Street,55.753271,49.203028
914137,"г Казань, ул Бирюзовая 9","Biryuzovaya ulitsa, 9",55.819767,48.8893
914165,"г Казань, ул Карбышева 48","ulitsa Karbysheva, 48",55.760905,49.177471
914225,"г Казань, ул Заря 7а","ulitsa Zarya, 7А",55.805675,49.180004
914431,"г Казань, ул Гагарина 59А","ulitsa Gagarina, 59А",55.839411,49.099955
914435,"г Казань, ул Дубравная 43","Dubravnaya ulitsa, 43",55.738743,49.204977
914618,"г Казань, ул Толстого (Кадышево) 4","Tolstogo Street, 4/47",55.79056,49.138178
914760,"г Казань, ул Рихарда Зорге 47","Richarda Zorge Street, 47",55.752906,49.205229
914793,"г Казань, ул Рихарда Зорге 24","Richarda Zorge Street, 24",55.757151,49.194054
914981,"г Казань, ул Лукина 8","ulitsa Lukina, 8",55.862848,49.092499
914991,"г Казань, городок Октябрьский 1/150","Oktyabrskiy gorodok, 1/150",55.799542,49.18764
915032,"г Казань, ул Гвардейская 48/2","Gvardeyskaya ulitsa, 48/2",55.778208,49.17147
915120,"г Казань, ул Мира 93","ulitsa Mira, 93",55.798156,49.270563
915173,"г Казань, ул Дементьева 31","ulitsa Dementyeva, 31",55.861191,49.103566
915187,"г Казань, ул Закиева 7","Zakieva Street, 7",55.777008,49.223249
915223,"г Казань, ул Приволжская 177","Privolzhskaya ulitsa, 177",55.805235,48.938366
915550,"г Казань, ул Хусаина Мавлютова 2","ulitsa Khusaina Mavlyutova, 2",55.758676,49.187217
915817,"г Казань, ул 40-летия Октября 19","ulitsa 40 let Oktyabrya, 19",55.821902,49.028153
917190,"г Казань, ул Тунакова 56а","ulitsa Tunakova, 56А",55.832748,49.086175
917233,"г Казань, ул Советская 9а","Sovetskaya ulitsa, 9А",55.868182,49.229088
917336,"г Казань, ул Гагарина 41","ulitsa Gagarina, 41",55.839582,49.106288
917447,"г Казань, ул Гагарина 49","ulitsa Gagarina, 49",55.838349,49.104078
917680,"г Казань, ул Чистопольская 12","Chistopolskaya Street, 12",55.818837,49.107115
917697,"г Казань, ул Павлюхина 104А","ulitsa Pavlyukhina, 104А",55.769788,49.142562
917757,"г Казань, ул Юлиуса Фучика 99а","ulitsa Yuliusa Fuchika, 99А",55.75434,49.229546
917993,"г Казань, ул Односторонка Гривки 10","ulitsa Odnostoronka Grivki, 20",55.813212,49.092679
918082,"г Казань, ул Карбышева 62","ulitsa Karbysheva, 62",55.753727,49.178315
918142,"г Казань, пр-кт Победы 32","Pobedy Avenue, 32",55.742798,49.199686
918282,"г Казань, ул Чистопольская 25","Chistopolskaya Street, 25",55.819944,49.118928
918554,"г Казань, ул Карбышева ",ulitsa Karbysheva,55.755895,49.179402
918717,"г Казань, Н.Назарбаева 47/113",City of Kazan,55.798551,49.106324
918794,"г Казань, ул Светлая 17","Svetlaya ulitsa, 17",55.822326,49.040594
918802,"г Казань, ул Джаудата Файзи 11","ulitsa Dzhaudata Fayzi, 11",55.792002,49.225153
918816,"г Казань, ул Светлая 18","Svetlaya ulitsa, 18",55.822114,49.042346
918827,"г Казань, ул Ноксинский Спуск 33","ulitsa Noksinskiy Spusk, 33",55.770456,49.240586
918901,"г Казань, ул Комарова 10","ulitsa Komarova, 10",55.75631,49.17032
919031,"г Казань, ул Ново-Азинская 12","Novo-Azinskaya Street, 12",55.813344,49.19674
919165,"г Казань, пр-кт Ямашева ",Yamasheva Avenue,55.827019,49.13286
919387,"г Казань, ул Советская 33","Sovetskaya ulitsa, 33",55.814462,49.265137
920470,"г Казань, ул Чистопольская 10/8","Chistopolskaya Street, 10/8",55.81871,49.104042
920646,"г Казань, ул Декабристов 96","Dekabristov Street, 96",55.821305,49.090541
920694,"г Казань, ул Отрадная 50","Otradnaya ulitsa, 50",55.768962,49.182429
920704,"г Казань, ул Комарова 4","ulitsa Komarova, 4",55.758129,49.17209
921238,"г Казань, ул Даурская 22А","Daurskaya ulitsa, 22А",55.762313,49.163637
921294,"г Казань, ул Гвардейская 38","Gvardeyskaya ulitsa, 38",55.783742,49.170185
921442,"г Казань, ул Чистопольская 74","Chistopolskaya Street, 74",55.818953,49.138098
921643,"г Казань, ул Сибгата Хакима 50","Sibgata Khakima Street, 50",55.815544,49.136193
921655,"г Казань, пр-кт Победы 42","Pobedy Avenue, 42",55.745073,49.205004
921718,"г Казань, пр-кт Фатыха Амирхана 48","Fatykha Amirkhana Street, 48Б",55.843298,49.136597
921769,"г Казань, тер Сады Дубки(НПО Союзнефтепромхим) ",Dubki,55.800934,48.98719
921818,"г Казань, ул Гаврилова 16","Gavrilova Street, 16",55.832525,49.156324
921866,"г Казань, ул Карима Тинчурина 9","Karima Tinchurina Street, 9",55.776725,49.105875
921916,"г Казань, ул Восстания 8","ulitsa Vosstaniya, 8",55.836039,49.098644
922061,"г Казань, ул Рихарда Зорге 12А","Richarda Zorge Street, 12А",55.760641,49.182672
922076,"г Казань, ул Вишневая (Вознесенское) 42В","Vishnyovaya ulitsa, 42В",55.764668,49.26087
922135,"г Казань, ул Миляшле (Вознесенское) 16","ulitsa Milyashle, 20",55.781595,49.265694
922199,"г Казань, ул Лейтенанта Красикова 14","ulitsa Leytenanta Krasikova, 14",55.819934,48.901158
922230,"г Казань, ул Кулле 49","ulitsa Kulle, 49",55.736017,49.246623
922264,"г Казань, ул Восстания 112","ulitsa Vosstaniya, 112",55.830584,49.047916
922445,"г Казань, ул Звенигородская 102","Zvenigorodskaya ulitsa, 102",55.829881,48.86253
922473,"г Казань, пр-кт Фатыха Амирхана 21","Fatykha Amirkhana Street, 21",55.824607,49.1318
922603,"г Казань, ул Азинская 2-я 1Д","2nd Azinskaya Street, 1Д",55.803261,49.205678
922658,"г Казань, пр-кт Ямашева ",Yamasheva Avenue,55.827019,49.13286
922679,"г Казань, ул Закиева 9","Zakieva Street, 9",55.776512,49.224354
922720,"г Казань, ул Восстания 119","ulitsa Vosstaniya, 119",55.831388,49.051823
922829,"г Казань, ул Сибгата Хакима 60","Sibgata Khakima Street, 60",55.81562,49.141152
922850,"г Казань, ул Кави Наджми 5","Kavi Nadzhmi Street, 5",55.790626,49.113322
922895,"г Казань, ул Оренбургский тракт ",Orenburgskiy trakt,55.740781,49.177237
